[
  {
    "name": "Colonia del Sacramento",
    "lat": -34.46978772,
    "lon": -57.836116,
    "population": 21714
  },
  {
    "name": "Trinidad",
    "lat": -33.5439989,
    "lon": -56.9009966,
    "population": 21093
  },
  {
    "name": "Fray Bentos",
    "lat": -33.138999,
    "lon": -58.3039975,
    "population": 23279
  },
  {
    "name": "Canelones",
    "lat": -34.538004,
    "lon": -56.2840015,
    "population": 19698
  },
  {
    "name": "Florida",
    "lat": -34.099002,
    "lon": -56.2149984,
    "population": 32234
  },
  {
    "name": "Bassar",
    "lat": 9.2610001,
    "lon": 0.7890036,
    "population": 61845
  },
  {
    "name": "Sotouboua",
    "lat": 8.5570021,
    "lon": 0.9849965,
    "population": 21054
  },
  {
    "name": "Medenine",
    "lat": 33.399999,
    "lon": 10.4166996,
    "population": 61705
  },
  {
    "name": "Kebili",
    "lat": 33.689997,
    "lon": 8.9710025,
    "population": 19875
  },
  {
    "name": "Tataouine",
    "lat": 33.0000032,
    "lon": 10.4667036,
    "population": 62577
  },
  {
    "name": "L'Ariana",
    "lat": 36.8666732,
    "lon": 10.1999975,
    "population": 97687
  },
  {
    "name": "Jendouba",
    "lat": 36.5000041,
    "lon": 8.7499986,
    "population": 51408
  },
  {
    "name": "Kasserine",
    "lat": 35.2167031,
    "lon": 8.7166985,
    "population": 76243
  },
  {
    "name": "Sdid Bouzid",
    "lat": 35.0166961,
    "lon": 9.5000045,
    "population": 42098
  },
  {
    "name": "Siliana",
    "lat": 36.0833041,
    "lon": 9.3833016,
    "population": 26960
  },
  {
    "name": "Mahdia",
    "lat": 35.483913,
    "lon": 11.0408766,
    "population": 45977
  },
  {
    "name": "Monastir",
    "lat": 35.7307021,
    "lon": 10.7672946,
    "population": 71546
  },
  {
    "name": "Zaghouan",
    "lat": 36.3999962,
    "lon": 10.1469966,
    "population": 16911
  },
  {
    "name": "T\u00e2y Ninh",
    "lat": 11.3229991,
    "lon": 106.1469997,
    "population": 126370
  },
  {
    "name": "Luan Chau",
    "lat": 21.740004,
    "lon": 103.3430047,
    "population": 7335
  },
  {
    "name": "B\u1eafc K\u1ea1n",
    "lat": 22.1333333,
    "lon": 105.8333333,
    "population": 29227
  },
  {
    "name": "L\u1ea1ng S\u01a1n",
    "lat": 21.8459971,
    "lon": 106.7570016,
    "population": 148000
  },
  {
    "name": "S\u01a1n La",
    "lat": 21.3280021,
    "lon": 103.9100047,
    "population": 19054
  },
  {
    "name": "Tuy\u00ean Quang",
    "lat": 21.8179981,
    "lon": 105.2109996,
    "population": 36430
  },
  {
    "name": "Y\u00ean B\u00e1i",
    "lat": 21.705003,
    "lon": 104.8750026,
    "population": 96540
  },
  {
    "name": "Hai Duong",
    "lat": 20.9420011,
    "lon": 106.3310046,
    "population": 58030
  },
  {
    "name": "Th\u00e1i B\u00ecnh",
    "lat": 20.4503041,
    "lon": 106.3330296,
    "population": 210000
  },
  {
    "name": "Tuy H\u00f2a",
    "lat": 13.082004,
    "lon": 109.3159987,
    "population": 69596
  },
  {
    "name": "Thu Dau Mot",
    "lat": 10.9690741,
    "lon": 106.6527455,
    "population": 244277
  },
  {
    "name": "\u0110\u00f4ng H\u00e0",
    "lat": 16.8499981,
    "lon": 107.1333007,
    "population": 17662
  },
  {
    "name": "Cao L\u00e3nh",
    "lat": 10.4670001,
    "lon": 105.6359976,
    "population": 149837
  },
  {
    "name": "Truc Giang",
    "lat": 10.234998,
    "lon": 106.3749966,
    "population": 59442
  },
  {
    "name": "Tra Vinh",
    "lat": 9.9340021,
    "lon": 106.3340017,
    "population": 131360
  },
  {
    "name": "V\u0129nh Long",
    "lat": 10.256004,
    "lon": 105.9640026,
    "population": 103314
  },
  {
    "name": "Cao B\u1eb1ng",
    "lat": 22.6639981,
    "lon": 106.2680046,
    "population": 41112
  },
  {
    "name": "Yoro",
    "lat": 15.12982918,
    "lon": -87.12850167,
    "population": 15774
  },
  {
    "name": "La Esperanza",
    "lat": 14.3330041,
    "lon": -88.1666995,
    "population": 5318
  },
  {
    "name": "La Paz",
    "lat": 14.319999,
    "lon": -87.6840026,
    "population": 17555
  },
  {
    "name": "Santa B\u00e1rbara",
    "lat": 14.919003,
    "lon": -88.2359996,
    "population": 15119
  },
  {
    "name": "Gracias",
    "lat": 14.5833031,
    "lon": -88.5833005,
    "population": 7909
  },
  {
    "name": "Nueva Ocotepeque",
    "lat": 14.4369991,
    "lon": -89.1819985,
    "population": 8780
  },
  {
    "name": "Yuscar\u00e1n",
    "lat": 13.943997,
    "lon": -86.8509985,
    "population": 2371
  },
  {
    "name": "J\u00e9r\u00e9mie",
    "lat": 18.6339347,
    "lon": -74.1184253,
    "population": 30917
  },
  {
    "name": "Port-De-Paix",
    "lat": 19.9317601,
    "lon": -72.8294845,
    "population": 34657
  },
  {
    "name": "Hinche",
    "lat": 19.1430001,
    "lon": -72.0039956,
    "population": 18590
  },
  {
    "name": "Fort-Libert\u00e9",
    "lat": 19.665567,
    "lon": -71.8448395,
    "population": 11465
  },
  {
    "name": "Jacmel",
    "lat": 18.234999,
    "lon": -72.5370026,
    "population": 33563
  },
  {
    "name": "K\u0131rklareli",
    "lat": 41.7429992,
    "lon": 27.2259996,
    "population": 58223
  },
  {
    "name": "Bilecik",
    "lat": 40.149999,
    "lon": 29.9829966,
    "population": 40285
  },
  {
    "name": "Sakarya",
    "lat": 40.7666611,
    "lon": 30.4000025,
    "population": 286787
  },
  {
    "name": "Kastamonu",
    "lat": 41.3890022,
    "lon": 33.7830035,
    "population": 70402
  },
  {
    "name": "Burdur",
    "lat": 37.7166601,
    "lon": 30.2833355,
    "population": 66158
  },
  {
    "name": "K\u0131r\u015fehir",
    "lat": 39.1419992,
    "lon": 34.1710026,
    "population": 94336
  },
  {
    "name": "Nev\u015fehir",
    "lat": 38.624004,
    "lon": 34.7239985,
    "population": 75527
  },
  {
    "name": "Antakya",
    "lat": 36.2333341,
    "lon": 36.1166766,
    "population": 154803
  },
  {
    "name": "Giresun",
    "lat": 40.9130011,
    "lon": 38.3900045,
    "population": 98864
  },
  {
    "name": "Sinop",
    "lat": 42.022998,
    "lon": 35.1530015,
    "population": 34834
  },
  {
    "name": "Tokat",
    "lat": 40.3059962,
    "lon": 36.5630045,
    "population": 129702
  },
  {
    "name": "Artvin",
    "lat": 41.1830011,
    "lon": 41.8179965,
    "population": 32272
  },
  {
    "name": "Bing\u00f6l",
    "lat": 38.885004,
    "lon": 40.4980026,
    "population": 80568
  },
  {
    "name": "Bitlis",
    "lat": 38.3940001,
    "lon": 42.1229976,
    "population": 62811
  },
  {
    "name": "Kalangala",
    "lat": -0.3088889,
    "lon": 32.225,
    "population": 5200
  },
  {
    "name": "\u00c7ank\u0131r\u0131",
    "lat": 40.607001,
    "lon": 33.6210036,
    "population": 71379
  },
  {
    "name": "Ni\u011fde",
    "lat": 37.9760041,
    "lon": 34.6940016,
    "population": 91039
  },
  {
    "name": "Yozgat",
    "lat": 39.8179981,
    "lon": 34.8149975,
    "population": 87881
  },
  {
    "name": "G\u00fcm\u00fc\u015fhane",
    "lat": 40.4640001,
    "lon": 39.4839996,
    "population": 32250
  },
  {
    "name": "Siirt",
    "lat": 37.9440001,
    "lon": 41.9329986,
    "population": 114034
  },
  {
    "name": "Tunceli",
    "lat": 39.1167,
    "lon": 39.5333015,
    "population": 29062
  },
  {
    "name": "Kumi",
    "lat": 1.4608333,
    "lon": 33.9361111,
    "population": 13000
  },
  {
    "name": "Kaberamaido",
    "lat": 1.7388889,
    "lon": 33.1594444,
    "population": 3400
  },
  {
    "name": "Kayunga",
    "lat": 0.7025,
    "lon": 32.8886111,
    "population": 21704
  },
  {
    "name": "Iganga",
    "lat": 0.6091667,
    "lon": 33.4686111,
    "population": 45024
  },
  {
    "name": "Kamuli",
    "lat": 0.9472222,
    "lon": 33.1197222,
    "population": 12764
  },
  {
    "name": "Pallisa",
    "lat": 1.145,
    "lon": 33.7094444,
    "population": 30745
  },
  {
    "name": "Mpigi",
    "lat": 0.225,
    "lon": 32.3136111,
    "population": 11082
  },
  {
    "name": "Adjumani",
    "lat": 3.3613889,
    "lon": 31.8097222,
    "population": 34700
  },
  {
    "name": "Nebbi",
    "lat": 2.4758333,
    "lon": 31.1025,
    "population": 30354
  },
  {
    "name": "Kiboga",
    "lat": 0.9161111,
    "lon": 31.7741667,
    "population": 14512
  },
  {
    "name": "Nakasongola",
    "lat": 1.3088889,
    "lon": 32.4563889,
    "population": 6921
  },
  {
    "name": "Bombo",
    "lat": 0.5832991,
    "lon": 32.5332995,
    "population": 75000
  },
  {
    "name": "Masindi",
    "lat": 1.6744444,
    "lon": 31.715,
    "population": 31486
  },
  {
    "name": "Fort Portal",
    "lat": 0.6710041,
    "lon": 30.2750016,
    "population": 42670
  },
  {
    "name": "Kibale",
    "lat": 0.8,
    "lon": 31.0666667,
    "population": 5200
  },
  {
    "name": "Sironko",
    "lat": 1.25,
    "lon": 34.3,
    "population": 14100
  },
  {
    "name": "Busia",
    "lat": 0.4544444,
    "lon": 34.0758333,
    "population": 47100
  },
  {
    "name": "Katakwi",
    "lat": 1.8911111,
    "lon": 33.9661111,
    "population": 8400
  },
  {
    "name": "Veszpr\u00e9m",
    "lat": 47.0909971,
    "lon": 17.9109996,
    "population": 62023
  },
  {
    "name": "Zalaegerszeg",
    "lat": 46.844001,
    "lon": 16.8399996,
    "population": 61898
  },
  {
    "name": "Tatab\u00e1nya",
    "lat": 47.5499972,
    "lon": 18.4329996,
    "population": 70541
  },
  {
    "name": "Szeksz\u00e1rd",
    "lat": 46.3439971,
    "lon": 18.7129986,
    "population": 34174
  },
  {
    "name": "Salg\u00f3tarj\u00e1n",
    "lat": 48.1050001,
    "lon": 19.8260016,
    "population": 39640
  },
  {
    "name": "B\u00e9k\u00e9scsaba",
    "lat": 46.6720021,
    "lon": 21.1010046,
    "population": 65206
  },
  {
    "name": "Eger",
    "lat": 47.8950031,
    "lon": 20.3830026,
    "population": 56647
  },
  {
    "name": "Ntungamo",
    "lat": -0.8794444,
    "lon": 30.2641667,
    "population": 16400
  },
  {
    "name": "Kisoro",
    "lat": -1.3538889,
    "lon": 29.6983333,
    "population": 12900
  },
  {
    "name": "Gikongoro",
    "lat": -2.4832979,
    "lon": 29.5667016,
    "population": 15000
  },
  {
    "name": "Kibuye",
    "lat": -2.050002,
    "lon": 29.3499996,
    "population": 48024
  },
  {
    "name": "Kibungo",
    "lat": -2.1666959,
    "lon": 30.5333016,
    "population": 46240
  },
  {
    "name": "T\u00e2rgu Jiu",
    "lat": 45.045,
    "lon": 23.2740006,
    "population": 97179
  },
  {
    "name": "Slatina",
    "lat": 44.4349981,
    "lon": 24.3710016,
    "population": 78988
  },
  {
    "name": "Alexandria",
    "lat": 43.97437014,
    "lon": 25.3298849,
    "population": 49346
  },
  {
    "name": "T\u00e2rgovi\u0219te",
    "lat": 44.9379991,
    "lon": 25.4590025,
    "population": 88435
  },
  {
    "name": "Giurgiu",
    "lat": 43.90180699,
    "lon": 25.96632528,
    "population": 69067
  },
  {
    "name": "Slobozia",
    "lat": 44.5699981,
    "lon": 27.3819966,
    "population": 52693
  },
  {
    "name": "Dar'a",
    "lat": 32.6250001,
    "lon": 36.1050035,
    "population": 146481
  },
  {
    "name": "Del\u00e9mont",
    "lat": 47.3699971,
    "lon": 7.3449995,
    "population": 11315
  },
  {
    "name": "Neuch\u00e2tel",
    "lat": 46.9989991,
    "lon": 6.9229986,
    "population": 31270
  },
  {
    "name": "Aarau",
    "lat": 47.3900041,
    "lon": 8.0340036,
    "population": 15501
  },
  {
    "name": "Stans",
    "lat": 46.9500031,
    "lon": 8.3833025,
    "population": 7475
  },
  {
    "name": "Sion",
    "lat": 46.239003,
    "lon": 7.3539995,
    "population": 28045
  },
  {
    "name": "Herisau",
    "lat": 47.383299,
    "lon": 9.2833025,
    "population": 15438
  },
  {
    "name": "Saint Gallen",
    "lat": 47.4229981,
    "lon": 9.3619986,
    "population": 70572
  },
  {
    "name": "Bellinzona",
    "lat": 46.1970001,
    "lon": 9.0199986,
    "population": 16572
  },
  {
    "name": "Glarus",
    "lat": 47.050002,
    "lon": 9.0666996,
    "population": 5681
  },
  {
    "name": "Schaffhausen",
    "lat": 47.7060031,
    "lon": 8.6329985,
    "population": 33863
  },
  {
    "name": "Schwyz",
    "lat": 47.019996,
    "lon": 8.6480016,
    "population": 14177
  },
  {
    "name": "Frauenfeld",
    "lat": 47.55261942,
    "lon": 8.90488847,
    "population": 21979
  },
  {
    "name": "Altdorf",
    "lat": 46.8790021,
    "lon": 8.6380026,
    "population": 8678
  },
  {
    "name": "Zug",
    "lat": 47.178999,
    "lon": 8.4870006,
    "population": 23435
  },
  {
    "name": "Falun",
    "lat": 60.613002,
    "lon": 15.6470046,
    "population": 36477
  },
  {
    "name": "Nyk\u00f6ping",
    "lat": 58.75198993,
    "lon": 16.99608231,
    "population": 27582
  },
  {
    "name": "H\u00e4rn\u00f6sand",
    "lat": 62.633997,
    "lon": 17.9340036,
    "population": 17016
  },
  {
    "name": "Karlskrona",
    "lat": 56.16278064,
    "lon": 15.5907542,
    "population": 35212
  },
  {
    "name": "Alba Lulia",
    "lat": 46.0770031,
    "lon": 23.5800006,
    "population": 66085
  },
  {
    "name": "Bistri\u021ba",
    "lat": 47.1380041,
    "lon": 24.5130036,
    "population": 81318
  },
  {
    "name": "Deva",
    "lat": 45.883323,
    "lon": 22.9166736,
    "population": 67802
  },
  {
    "name": "Zal\u0103u",
    "lat": 47.1750031,
    "lon": 23.0630045,
    "population": 63232
  },
  {
    "name": "Satu Mare",
    "lat": 47.7919982,
    "lon": 22.8850025,
    "population": 112490
  },
  {
    "name": "Rimnicu Vilcea",
    "lat": 45.109998,
    "lon": 24.3829986,
    "population": 107558
  },
  {
    "name": "Sfintu-Gheorghe",
    "lat": 45.8679961,
    "lon": 25.7930015,
    "population": 60677
  },
  {
    "name": "Miercurea Cuic",
    "lat": 46.3609981,
    "lon": 25.5240005,
    "population": 42029
  },
  {
    "name": "Piatra-Neamt",
    "lat": 46.9400041,
    "lon": 26.3829966,
    "population": 102688
  },
  {
    "name": "Br\u0103ila",
    "lat": 45.2919961,
    "lon": 27.9690035,
    "population": 213569
  },
  {
    "name": "Vaslui",
    "lat": 46.6333291,
    "lon": 27.7333386,
    "population": 69225
  },
  {
    "name": "Salyan",
    "lat": 28.35,
    "lon": 82.1833026,
    "population": 15000
  },
  {
    "name": "Mae Hong Son",
    "lat": 19.3010041,
    "lon": 97.9689967,
    "population": 9109
  },
  {
    "name": "Phangnga",
    "lat": 8.4510001,
    "lon": 98.5339986,
    "population": 9676
  },
  {
    "name": "Ranong",
    "lat": 9.9620011,
    "lon": 98.6380026,
    "population": 24561
  },
  {
    "name": "Krabi",
    "lat": 8.0520031,
    "lon": 98.9119987,
    "population": 31219
  },
  {
    "name": "Phatthalung",
    "lat": 7.614999,
    "lon": 100.0809996,
    "population": 43522
  },
  {
    "name": "Satun",
    "lat": 6.6167011,
    "lon": 100.0666986,
    "population": 34544
  },
  {
    "name": "Lamphun",
    "lat": 18.57398513,
    "lon": 99.00705228,
    "population": 14030
  },
  {
    "name": "Kamphaeng Phet",
    "lat": 16.472997,
    "lon": 99.5290027,
    "population": 58787
  },
  {
    "name": "Phichit",
    "lat": 16.439004,
    "lon": 100.3490017,
    "population": 35760
  },
  {
    "name": "Phetchabun",
    "lat": 16.4189971,
    "lon": 101.1590017,
    "population": 50656
  },
  {
    "name": "Supham Buri",
    "lat": 14.471001,
    "lon": 100.1289966,
    "population": 53399
  },
  {
    "name": "Ang Thong",
    "lat": 14.5833031,
    "lon": 100.4499997,
    "population": 13738
  },
  {
    "name": "Chainat",
    "lat": 15.179004,
    "lon": 100.1259997,
    "population": 15469
  },
  {
    "name": "Nakhon Nayok",
    "lat": 14.200002,
    "lon": 101.2159987,
    "population": 21309
  },
  {
    "name": "Sing Buri",
    "lat": 14.886999,
    "lon": 100.4010036,
    "population": 20046
  },
  {
    "name": "Nakhon Pathom",
    "lat": 13.8179971,
    "lon": 100.0639986,
    "population": 117927
  },
  {
    "name": "Prachuap Khiri Khan",
    "lat": 11.802996,
    "lon": 99.8000017,
    "population": 33521
  },
  {
    "name": "Samut Sakhon",
    "lat": 13.536,
    "lon": 100.2740046,
    "population": 63498
  },
  {
    "name": "Samut Songkhram",
    "lat": 13.412997,
    "lon": 100.0009986,
    "population": 35065
  },
  {
    "name": "Yasothon",
    "lat": 15.7879981,
    "lon": 104.1509977,
    "population": 21643
  },
  {
    "name": "Chachoengsao",
    "lat": 13.6790011,
    "lon": 101.0760037,
    "population": 49741
  },
  {
    "name": "Trat",
    "lat": 12.2370031,
    "lon": 102.5090016,
    "population": 21590
  },
  {
    "name": "Kalasin",
    "lat": 16.4279971,
    "lon": 103.5090007,
    "population": 55102
  },
  {
    "name": "Maha Sarakham",
    "lat": 16.183998,
    "lon": 103.2980045,
    "population": 51584
  },
  {
    "name": "Roi Et",
    "lat": 16.050996,
    "lon": 103.6549986,
    "population": 39328
  },
  {
    "name": "Pattani",
    "lat": 6.864003,
    "lon": 101.2500006,
    "population": 150000
  },
  {
    "name": "Piggs Peak",
    "lat": -25.961004,
    "lon": 31.2470015,
    "population": 5750
  },
  {
    "name": "Siteki",
    "lat": -26.454996,
    "lon": 31.9519986,
    "population": 6152
  },
  {
    "name": "Manzini",
    "lat": -26.4950011,
    "lon": 31.3880045,
    "population": 110537
  },
  {
    "name": "Hlatikulu",
    "lat": -26.96081493,
    "lon": 31.31013697,
    "population": 2748
  },
  {
    "name": "Somoto",
    "lat": 13.4759971,
    "lon": -86.5829966,
    "population": 20316
  },
  {
    "name": "Ocotal",
    "lat": 13.629996,
    "lon": -86.4729986,
    "population": 33928
  },
  {
    "name": "Aveiro",
    "lat": 40.6410031,
    "lon": -8.6509975,
    "population": 54162
  },
  {
    "name": "Leiria",
    "lat": 39.738996,
    "lon": -8.8049965,
    "population": 45112
  },
  {
    "name": "Viana Do Castelo",
    "lat": 41.6962351,
    "lon": -8.8441375,
    "population": 15555
  },
  {
    "name": "M\u00e9rida",
    "lat": 38.912004,
    "lon": -6.3379975,
    "population": 52423
  },
  {
    "name": "Beja",
    "lat": 38.0140021,
    "lon": -7.8630024,
    "population": 35854
  },
  {
    "name": "\u00c9vora",
    "lat": 38.5599961,
    "lon": -7.9059956,
    "population": 55620
  },
  {
    "name": "Portalegre",
    "lat": 39.2900041,
    "lon": -7.4230015,
    "population": 15581
  },
  {
    "name": "Santar\u00e9m",
    "lat": 39.2310001,
    "lon": -8.6820026,
    "population": 29385
  },
  {
    "name": "Bragan\u00e7a",
    "lat": 41.807997,
    "lon": -6.7550034,
    "population": 34375
  },
  {
    "name": "Castelo Branco",
    "lat": 39.8109961,
    "lon": -7.4879996,
    "population": 33479
  },
  {
    "name": "Guarda",
    "lat": 40.5410041,
    "lon": -7.2620005,
    "population": 32111
  },
  {
    "name": "Viseu",
    "lat": 40.6569961,
    "lon": -7.9100004,
    "population": 26364
  },
  {
    "name": "Vila Real",
    "lat": 41.2939981,
    "lon": -7.7370025,
    "population": 17001
  },
  {
    "name": "Fatick",
    "lat": 14.3440021,
    "lon": -16.4159995,
    "population": 24243
  },
  {
    "name": "An Nabk",
    "lat": 31.333302,
    "lon": 37.3332965,
    "population": 10000
  },
  {
    "name": "Assen",
    "lat": 53.0000011,
    "lon": 6.5500026,
    "population": 62237
  },
  {
    "name": "Arnhem",
    "lat": 51.987996,
    "lon": 5.9229996,
    "population": 141674
  },
  {
    "name": "Maastricht",
    "lat": 50.8529971,
    "lon": 5.6770025,
    "population": 122378
  },
  {
    "name": "Zwolle",
    "lat": 52.5240001,
    "lon": 6.0969965,
    "population": 111805
  },
  {
    "name": "Middelburg",
    "lat": 51.5019962,
    "lon": 3.6099995,
    "population": 46485
  },
  {
    "name": "'s-Hertogenbosch",
    "lat": 51.6833371,
    "lon": 5.3166605,
    "population": 134520
  },
  {
    "name": "Arendal",
    "lat": 58.4647561,
    "lon": 8.7660006,
    "population": 30916
  },
  {
    "name": "Vossavangen",
    "lat": 60.6300032,
    "lon": 6.4410035,
    "population": 5571
  },
  {
    "name": "Leikanger",
    "lat": 61.1832961,
    "lon": 6.8499995,
    "population": 1965
  },
  {
    "name": "B\u00e6rum",
    "lat": 59.9134861,
    "lon": 11.3472365,
    "population": 113659
  },
  {
    "name": "Hamar",
    "lat": 60.8200021,
    "lon": 11.0690016,
    "population": 29479
  },
  {
    "name": "T\u00f8nsberg",
    "lat": 59.2640011,
    "lon": 10.4210015,
    "population": 38914
  },
  {
    "name": "Baglung",
    "lat": 28.2666961,
    "lon": 83.5832976,
    "population": 23296
  },
  {
    "name": "Jumla",
    "lat": 29.2500001,
    "lon": 82.2167016,
    "population": 9073
  },
  {
    "name": "Bhairawa",
    "lat": 27.5333041,
    "lon": 83.3832995,
    "population": 63367
  },
  {
    "name": "Dandeldhura",
    "lat": 29.3000042,
    "lon": 80.6000045,
    "population": 19014
  },
  {
    "name": "Dhangarhi",
    "lat": 28.6949971,
    "lon": 80.5930026,
    "population": 92294
  },
  {
    "name": "Ramechhap",
    "lat": 27.3259981,
    "lon": 86.0869985,
    "population": 15000
  },
  {
    "name": "Bhimphedi",
    "lat": 27.5509981,
    "lon": 85.1300016,
    "population": 15000
  },
  {
    "name": "Rajbiraj",
    "lat": 26.5332961,
    "lon": 86.7332976,
    "population": 33061
  },
  {
    "name": "Ilam",
    "lat": 26.9080021,
    "lon": 87.9260045,
    "population": 17491
  },
  {
    "name": "Wabag",
    "lat": -5.49,
    "lon": 143.7180037,
    "population": 3958
  },
  {
    "name": "Vanimo",
    "lat": -2.6900009,
    "lon": 141.3039966,
    "population": 11204
  },
  {
    "name": "Kundiawa",
    "lat": -6.0229979,
    "lon": 144.9600127,
    "population": 9383
  },
  {
    "name": "Kerema",
    "lat": -7.9270019,
    "lon": 145.8379987,
    "population": 5646
  },
  {
    "name": "Arawa",
    "lat": -6.228,
    "lon": 155.5659907,
    "population": 40266
  },
  {
    "name": "Lorengau",
    "lat": -2.032002,
    "lon": 147.2799966,
    "population": 5806
  },
  {
    "name": "Kimbe",
    "lat": -5.5500029,
    "lon": 150.1430137,
    "population": 18847
  },
  {
    "name": "Dub\u0103sari",
    "lat": 47.2630556,
    "lon": 29.1608333,
    "population": 23254
  },
  {
    "name": "Qacha's Nek",
    "lat": -30.1172669,
    "lon": 28.7019995,
    "population": 25573
  },
  {
    "name": "Hudur",
    "lat": 4.183299,
    "lon": 43.8667026,
    "population": 1639
  },
  {
    "name": "Garbahaarey",
    "lat": 3.3270031,
    "lon": 42.2270016,
    "population": 12652
  },
  {
    "name": "Bu'aale",
    "lat": 1.083303,
    "lon": 42.5833025,
    "population": 1490
  },
  {
    "name": "Dhuusa Mareeb",
    "lat": 5.53198231,
    "lon": 46.38217412,
    "population": 447
  },
  {
    "name": "Trincomalee",
    "lat": 8.568999,
    "lon": 81.2330016,
    "population": 108420
  },
  {
    "name": "Puttalan",
    "lat": 8.0330041,
    "lon": 79.8260045,
    "population": 45661
  },
  {
    "name": "Ratnapura",
    "lat": 6.6930031,
    "lon": 80.3860026,
    "population": 47832
  },
  {
    "name": "Umuahia",
    "lat": 5.532003,
    "lon": 7.4860025,
    "population": 264662
  },
  {
    "name": "Uyo",
    "lat": 5.03601351,
    "lon": 7.91615256,
    "population": 554906
  },
  {
    "name": "Owerri",
    "lat": 5.4929971,
    "lon": 7.0260036,
    "population": 215038
  },
  {
    "name": "Sariwon",
    "lat": 38.5070041,
    "lon": 125.7620047,
    "population": 154942
  },
  {
    "name": "Sin-Ni",
    "lat": 39.4880041,
    "lon": 125.4639966,
    "population": 19463
  },
  {
    "name": "Suchboatar",
    "lat": 50.2499971,
    "lon": 106.2000006,
    "population": 24235
  },
  {
    "name": "Dzuunmod",
    "lat": 47.710998,
    "lon": 106.9470006,
    "population": 17738
  },
  {
    "name": "Omaruru",
    "lat": -21.4360019,
    "lon": 15.9509975,
    "population": 11547
  },
  {
    "name": "Karibib",
    "lat": -21.9390029,
    "lon": 15.8529965,
    "population": 6898
  },
  {
    "name": "Otavi",
    "lat": -19.639998,
    "lon": 17.3420015,
    "population": 4562
  },
  {
    "name": "Gobabis",
    "lat": -22.455,
    "lon": 18.9630005,
    "population": 16321
  },
  {
    "name": "Wete",
    "lat": -5.063464,
    "lon": 39.725799,
    "population": 26450
  },
  {
    "name": "Kibaha",
    "lat": -6.766704,
    "lon": 38.9167026,
    "population": 23651
  },
  {
    "name": "Mkokotoni",
    "lat": -5.878998,
    "lon": 39.2599986,
    "population": 2572
  },
  {
    "name": "Fribourg",
    "lat": 46.8000001,
    "lon": 7.1499965,
    "population": 32827
  },
  {
    "name": "Liestal",
    "lat": 47.4830011,
    "lon": 7.7370035,
    "population": 12832
  },
  {
    "name": "Solothurn",
    "lat": 47.2120021,
    "lon": 7.5369966,
    "population": 14853
  },
  {
    "name": "Sarnen",
    "lat": 46.899,
    "lon": 8.2430015,
    "population": 9410
  },
  {
    "name": "Mariestad",
    "lat": 58.7050021,
    "lon": 13.8279966,
    "population": 14891
  },
  {
    "name": "Vannersborg",
    "lat": 58.3630021,
    "lon": 12.3300006,
    "population": 21835
  },
  {
    "name": "Appenzell",
    "lat": 47.3333041,
    "lon": 9.4167005,
    "population": 5649
  },
  {
    "name": "Ros Comain",
    "lat": 53.6333333,
    "lon": -8.1833333,
    "population": 4860
  },
  {
    "name": "Cacheu",
    "lat": 12.268998,
    "lon": -16.1649985,
    "population": 10490
  },
  {
    "name": "Farim",
    "lat": 12.492999,
    "lon": -15.2270004,
    "population": 6792
  },
  {
    "name": "Fulacunda",
    "lat": 11.772999,
    "lon": -15.1949965,
    "population": 1311
  },
  {
    "name": "Gab\u00fa",
    "lat": 12.2799961,
    "lon": -14.2340035,
    "population": 14430
  },
  {
    "name": "Cati\u00f3",
    "lat": 11.27303648,
    "lon": -15.25424569,
    "population": 9898
  },
  {
    "name": "Barclayville",
    "lat": 4.67410275,
    "lon": -8.23159527,
    "population": 2733
  },
  {
    "name": "Voinjama",
    "lat": 8.4167011,
    "lon": -9.7499965,
    "population": 26594
  },
  {
    "name": "Bensonville",
    "lat": 6.433299,
    "lon": -10.6000015,
    "population": 4089
  },
  {
    "name": "Kakata",
    "lat": 6.525999,
    "lon": -10.3490005,
    "population": 33945
  },
  {
    "name": "Sanniquellie",
    "lat": 7.3710001,
    "lon": -8.6849995,
    "population": 11415
  },
  {
    "name": "Rivercess",
    "lat": 5.464998,
    "lon": -9.5779974,
    "population": 2578
  },
  {
    "name": "Potenza",
    "lat": 40.6420021,
    "lon": 15.7989965,
    "population": 69060
  },
  {
    "name": "Campobasso",
    "lat": 41.5629991,
    "lon": 14.6559966,
    "population": 50762
  },
  {
    "name": "Al Mafraq",
    "lat": 32.2832971,
    "lon": 36.2332985,
    "population": 57118
  },
  {
    "name": "At Tafilah",
    "lat": 30.833334,
    "lon": 35.6000046,
    "population": 25429
  },
  {
    "name": "Ma'an",
    "lat": 30.1920031,
    "lon": 35.7360036,
    "population": 50350
  },
  {
    "name": "Aosta",
    "lat": 45.7370011,
    "lon": 7.3150026,
    "population": 34062
  },
  {
    "name": "Diekirch",
    "lat": 49.8833011,
    "lon": 6.1667016,
    "population": 6242
  },
  {
    "name": "Grevenmacher",
    "lat": 49.67975296,
    "lon": 6.42559938,
    "population": 3958
  },
  {
    "name": "Kangar",
    "lat": 6.433002,
    "lon": 100.1899987,
    "population": 63869
  },
  {
    "name": "Kuala Lipis",
    "lat": 4.1840011,
    "lon": 102.0420006,
    "population": 15448
  },
  {
    "name": "Shah Alam",
    "lat": 3.066696,
    "lon": 101.5499977,
    "population": 481654
  },
  {
    "name": "Nyeri",
    "lat": -0.416997,
    "lon": 36.9510036,
    "population": 51084
  },
  {
    "name": "Teyateyaneng",
    "lat": -29.1529979,
    "lon": 27.7530035,
    "population": 5115
  },
  {
    "name": "Mohales Hoek",
    "lat": -30.1589999,
    "lon": 27.4799975,
    "population": 24992
  },
  {
    "name": "Moyeni",
    "lat": -30.4109999,
    "lon": 27.7160045,
    "population": 24130
  },
  {
    "name": "Hlotse",
    "lat": -28.878003,
    "lon": 28.0559976,
    "population": 47675
  },
  {
    "name": "Butha-Buthe",
    "lat": -28.7499959,
    "lon": 28.2500016,
    "population": 16330
  },
  {
    "name": "Mokhotlong",
    "lat": -29.291004,
    "lon": 29.0780015,
    "population": 8809
  },
  {
    "name": "Ahuachap\u00e1n",
    "lat": 13.919004,
    "lon": -89.8450015,
    "population": 34102
  },
  {
    "name": "Cojutepeque",
    "lat": 13.716702,
    "lon": -88.9333016,
    "population": 48411
  },
  {
    "name": "Nueva San Salvador",
    "lat": 13.673997,
    "lon": -89.2899985,
    "population": 124694
  },
  {
    "name": "Zacatecoluca",
    "lat": 13.508001,
    "lon": -88.8679976,
    "population": 39613
  },
  {
    "name": "La Uni\u00f3n",
    "lat": 13.331997,
    "lon": -87.8390005,
    "population": 26807
  },
  {
    "name": "San Francisco Gotera",
    "lat": 13.6999981,
    "lon": -88.1000005,
    "population": 16152
  },
  {
    "name": "San Vicente",
    "lat": 13.641003,
    "lon": -88.7849996,
    "population": 37326
  },
  {
    "name": "Usulut\u00e1n",
    "lat": 13.3460011,
    "lon": -88.4320016,
    "population": 51910
  },
  {
    "name": "Chalatenango",
    "lat": 14.00952682,
    "lon": -88.90673712,
    "population": 29271
  },
  {
    "name": "Lucea",
    "lat": 18.4429981,
    "lon": -78.1790036,
    "population": 6289
  },
  {
    "name": "Mandeville",
    "lat": 18.0330031,
    "lon": -77.4999985,
    "population": 47115
  },
  {
    "name": "Black River",
    "lat": 18.0309961,
    "lon": -77.8519975,
    "population": 4229
  },
  {
    "name": "Falmouth",
    "lat": 18.479583,
    "lon": -77.6560496,
    "population": 7779
  },
  {
    "name": "Savanna-la-Mar",
    "lat": 18.1639981,
    "lon": -77.9480005,
    "population": 30000
  },
  {
    "name": "Port Antonio",
    "lat": 18.1590031,
    "lon": -76.3800026,
    "population": 14400
  },
  {
    "name": "Saint Ann's Bay",
    "lat": 18.4326391,
    "lon": -77.1995245,
    "population": 13671
  },
  {
    "name": "Port Maria",
    "lat": 18.3770011,
    "lon": -76.8999955,
    "population": 7906
  },
  {
    "name": "Half Way Tree",
    "lat": 18.0333001,
    "lon": -76.7999965,
    "population": 96494
  },
  {
    "name": "Port Morant",
    "lat": 17.891001,
    "lon": -76.3289996,
    "population": 11536
  },
  {
    "name": "Sabaneta",
    "lat": 19.5049981,
    "lon": -71.3449885,
    "population": 16380
  },
  {
    "name": "Mao",
    "lat": 19.5519961,
    "lon": -71.0749975,
    "population": 48297
  },
  {
    "name": "Cotu\u00ed",
    "lat": 19.0590031,
    "lon": -70.1520026,
    "population": 41641
  },
  {
    "name": "Evinayong",
    "lat": 1.4499991,
    "lon": 10.5667026,
    "population": 8462
  },
  {
    "name": "Luba",
    "lat": 3.449997,
    "lon": 8.5500005,
    "population": 8655
  },
  {
    "name": "\u0160ibenik",
    "lat": 43.7272222,
    "lon": 15.9058333,
    "population": 37112
  },
  {
    "name": "Shibin el Kom",
    "lat": 30.55448232,
    "lon": 31.00695316,
    "population": 182900
  },
  {
    "name": "Benha",
    "lat": 30.4666651,
    "lon": 31.1833356,
    "population": 167029
  },
  {
    "name": "Zagazig",
    "lat": 30.5833321,
    "lon": 31.5166596,
    "population": 285097
  },
  {
    "name": "Kafr el Sheikh",
    "lat": 31.109004,
    "lon": 30.9359976,
    "population": 143970
  },
  {
    "name": "Dikhil",
    "lat": 11.104002,
    "lon": 42.3720006,
    "population": 12043
  },
  {
    "name": "Tadjoura",
    "lat": 11.783304,
    "lon": 42.9000035,
    "population": 22193
  },
  {
    "name": "Haapsalu",
    "lat": 58.9430556,
    "lon": 23.5413889,
    "population": 11805
  },
  {
    "name": "Hawalli",
    "lat": 29.33334,
    "lon": 47.9999976,
    "population": 164212
  },
  {
    "name": "Buluko",
    "lat": -0.7569989,
    "lon": 28.5280025,
    "population": 1192
  },
  {
    "name": "Mzimba",
    "lat": -11.9,
    "lon": 33.6,
    "population": 19308
  },
  {
    "name": "Machinga",
    "lat": -15.17618597,
    "lon": 35.30166518,
    "population": 1418
  },
  {
    "name": "Dedza",
    "lat": -14.3666667,
    "lon": 34.3333333,
    "population": 15608
  },
  {
    "name": "Mchinji",
    "lat": -13.8,
    "lon": 32.9,
    "population": 18305
  },
  {
    "name": "Ntcheu",
    "lat": -14.8166667,
    "lon": 34.6333333,
    "population": 10445
  },
  {
    "name": "Chiradzulu",
    "lat": -15.7,
    "lon": 35.1833333,
    "population": 1580
  },
  {
    "name": "Nsanje",
    "lat": -16.9166667,
    "lon": 35.2666667,
    "population": 21774
  },
  {
    "name": "Mwanza",
    "lat": -15.6166667,
    "lon": 34.5166667,
    "population": 11379
  },
  {
    "name": "Mulanje",
    "lat": -16.0333333,
    "lon": 35.5,
    "population": 16483
  },
  {
    "name": "Salam\u00e1",
    "lat": 15.102999,
    "lon": -90.3140006,
    "population": 40000
  },
  {
    "name": "Retalhuleu",
    "lat": 14.537097,
    "lon": -91.6770145,
    "population": 36656
  },
  {
    "name": "San Marcos",
    "lat": 14.9660011,
    "lon": -91.7999995,
    "population": 25088
  },
  {
    "name": "Chimaltenango",
    "lat": 14.6619991,
    "lon": -90.8199985,
    "population": 82370
  },
  {
    "name": "Antigua Guatemala",
    "lat": 14.5666981,
    "lon": -90.7333016,
    "population": 39368
  },
  {
    "name": "Solol\u00e1",
    "lat": 14.772996,
    "lon": -91.1829955,
    "population": 45373
  },
  {
    "name": "Totonicap\u00e1n",
    "lat": 14.913999,
    "lon": -91.3580006,
    "population": 69734
  },
  {
    "name": "El Progreso",
    "lat": 14.92229409,
    "lon": -90.0162082,
    "population": 147197
  },
  {
    "name": "Cuilapa",
    "lat": 14.2790041,
    "lon": -90.2979985,
    "population": 16484
  },
  {
    "name": "Chiquimula",
    "lat": 14.7969991,
    "lon": -89.5439965,
    "population": 41521
  },
  {
    "name": "Jalapa",
    "lat": 14.6330011,
    "lon": -89.9890016,
    "population": 45834
  },
  {
    "name": "Zacapa",
    "lat": 14.972004,
    "lon": -89.5290026,
    "population": 36088
  },
  {
    "name": "Puerto Plata",
    "lat": 19.7902171,
    "lon": -70.6902475,
    "population": 119897
  },
  {
    "name": "Dajab\u00f3n",
    "lat": 19.548,
    "lon": -71.7049976,
    "population": 16398
  },
  {
    "name": "Moca",
    "lat": 19.3969981,
    "lon": -70.5230006,
    "population": 61834
  },
  {
    "name": "Salcedo",
    "lat": 19.383003,
    "lon": -70.4167015,
    "population": 45299
  },
  {
    "name": "Jiman\u00ed",
    "lat": 18.4930021,
    "lon": -71.8509955,
    "population": 6567
  },
  {
    "name": "Comendador",
    "lat": 18.875997,
    "lon": -71.7069955,
    "population": 43894
  },
  {
    "name": "Pedernales",
    "lat": 18.037998,
    "lon": -71.7409976,
    "population": 11072
  },
  {
    "name": "Azua",
    "lat": 18.4539961,
    "lon": -70.7290016,
    "population": 59139
  },
  {
    "name": "Bonao",
    "lat": 18.9420031,
    "lon": -70.4089976,
    "population": 73269
  },
  {
    "name": "Ban\u00ed",
    "lat": 18.279999,
    "lon": -70.3310035,
    "population": 66709
  },
  {
    "name": "Hato Mayor",
    "lat": 18.7640011,
    "lon": -69.2569975,
    "population": 35999
  },
  {
    "name": "Monte Plata",
    "lat": 18.8070031,
    "lon": -69.7840015,
    "population": 15532
  },
  {
    "name": "Nagua",
    "lat": 19.3760011,
    "lon": -69.8470015,
    "population": 33862
  },
  {
    "name": "Saman\u00e1",
    "lat": 19.2120031,
    "lon": -69.3320036,
    "population": 11432
  },
  {
    "name": "San Crist\u00f3bal",
    "lat": 18.4159981,
    "lon": -70.1090005,
    "population": 154040
  },
  {
    "name": "El Seibo",
    "lat": 18.7640011,
    "lon": -69.0350035,
    "population": 23547
  },
  {
    "name": "Higuey",
    "lat": 18.615996,
    "lon": -68.7079975,
    "population": 123787
  },
  {
    "name": "Georgetown",
    "lat": 13.5510031,
    "lon": -14.7670015,
    "population": 3584
  },
  {
    "name": "Basse Santa Su",
    "lat": 13.3100011,
    "lon": -14.2229965,
    "population": 14380
  },
  {
    "name": "Kerewan",
    "lat": 13.4939971,
    "lon": -16.0949965,
    "population": 2751
  },
  {
    "name": "Mansa Konko",
    "lat": 13.45489416,
    "lon": -15.54332351,
    "population": 18672
  },
  {
    "name": "Sunyani",
    "lat": 7.335999,
    "lon": -2.3360034,
    "population": 70299
  },
  {
    "name": "Ebebiy\u00edn",
    "lat": 2.152998,
    "lon": 11.3300016,
    "population": 24831
  },
  {
    "name": "Viljandi",
    "lat": 58.3638889,
    "lon": 25.59,
    "population": 20309
  },
  {
    "name": "Tchibanga",
    "lat": -2.92148345,
    "lon": 10.99728859,
    "population": 19365
  },
  {
    "name": "Madingou",
    "lat": -4.1640029,
    "lon": 13.5540005,
    "population": 22760
  },
  {
    "name": "Lamia",
    "lat": 38.8989992,
    "lon": 22.4340036,
    "population": 47246
  },
  {
    "name": "Polygyros",
    "lat": 40.3810021,
    "lon": 23.4530015,
    "population": 5258
  },
  {
    "name": "Komatini",
    "lat": 41.1333031,
    "lon": 25.4167026,
    "population": 45631
  },
  {
    "name": "B'abda",
    "lat": 33.8333041,
    "lon": 35.5332965,
    "population": 9000
  },
  {
    "name": "Ramla",
    "lat": 31.9167001,
    "lon": 34.8667025,
    "population": 63860
  },
  {
    "name": "Nabatiye et Tahta",
    "lat": 33.383304,
    "lon": 35.4500016,
    "population": 80000
  },
  {
    "name": "Mariehamn",
    "lat": 60.0969962,
    "lon": 19.9490045,
    "population": 10682
  },
  {
    "name": "H\u00e4meenlinna",
    "lat": 60.9969961,
    "lon": 24.4719995,
    "population": 47261
  },
  {
    "name": "Kouvola",
    "lat": 60.8760001,
    "lon": 26.7090035,
    "population": 31133
  },
  {
    "name": "Mikkeli",
    "lat": 61.6899962,
    "lon": 27.2850035,
    "population": 46550
  },
  {
    "name": "Ban Houayxay",
    "lat": 20.2775,
    "lon": 100.4127778,
    "population": 6347
  },
  {
    "name": "Louang Namtha",
    "lat": 20.950002,
    "lon": 101.4166986,
    "population": 3225
  },
  {
    "name": "Champasak",
    "lat": 14.8833001,
    "lon": 105.8667036,
    "population": 12994
  },
  {
    "name": "Saravan",
    "lat": 15.715998,
    "lon": 106.4269987,
    "population": 5521
  },
  {
    "name": "Xam Nua",
    "lat": 20.416698,
    "lon": 104.0333047,
    "population": 38992
  },
  {
    "name": "Phongsali",
    "lat": 21.683304,
    "lon": 102.0999967,
    "population": 6000
  },
  {
    "name": "Attapu",
    "lat": 14.8079971,
    "lon": 106.8390005,
    "population": 4297
  },
  {
    "name": "Kinkala",
    "lat": -4.3559999,
    "lon": 14.7619986,
    "population": 13882
  },
  {
    "name": "Muineachan",
    "lat": 54.25,
    "lon": -6.9666667,
    "population": 5937
  },
  {
    "name": "Vejle",
    "lat": 55.709001,
    "lon": 9.5349965,
    "population": 51177
  },
  {
    "name": "Hiller\u00f8d",
    "lat": 55.9332991,
    "lon": 12.3166985,
    "population": 28313
  },
  {
    "name": "Sor\u00f8",
    "lat": 55.4329981,
    "lon": 11.5667016,
    "population": 7167
  },
  {
    "name": "Mali",
    "lat": 12.084003,
    "lon": -12.3010014,
    "population": 5479
  },
  {
    "name": "Tongue",
    "lat": 11.439999,
    "lon": -11.6700025,
    "population": 25531
  },
  {
    "name": "Kouroussa",
    "lat": 10.6530031,
    "lon": -9.8919985,
    "population": 14223
  },
  {
    "name": "Pita",
    "lat": 11.0799991,
    "lon": -12.4010006,
    "population": 20052
  },
  {
    "name": "Dalaba",
    "lat": 10.656,
    "lon": -12.2720036,
    "population": 6349
  },
  {
    "name": "Boffa",
    "lat": 10.1850031,
    "lon": -14.0429964,
    "population": 2332
  },
  {
    "name": "Koundara",
    "lat": 12.4800031,
    "lon": -13.2959964,
    "population": 13990
  },
  {
    "name": "Gaoual",
    "lat": 11.7540001,
    "lon": -13.2129984,
    "population": 7461
  },
  {
    "name": "T\u00e9lim\u00e9l\u00e9",
    "lat": 10.9050031,
    "lon": -13.0429976,
    "population": 30311
  },
  {
    "name": "Forecariah",
    "lat": 9.4300021,
    "lon": -13.0979966,
    "population": 12358
  },
  {
    "name": "Beyla",
    "lat": 8.686998,
    "lon": -8.6570005,
    "population": 13204
  },
  {
    "name": "Gueckedou",
    "lat": 8.5539961,
    "lon": -10.1510005,
    "population": 221715
  },
  {
    "name": "Dinguiraye",
    "lat": 11.298996,
    "lon": -10.7260014,
    "population": 6062
  },
  {
    "name": "Dabola",
    "lat": 10.747998,
    "lon": -11.1089965,
    "population": 13057
  },
  {
    "name": "Touba",
    "lat": 8.28,
    "lon": -7.6840015,
    "population": 27504
  },
  {
    "name": "Bouafl\u00e9",
    "lat": 6.9779971,
    "lon": -5.7480024,
    "population": 60962
  },
  {
    "name": "Divo",
    "lat": 5.839002,
    "lon": -5.3600035,
    "population": 127867
  },
  {
    "name": "Toumodi",
    "lat": 6.5520001,
    "lon": -5.0190024,
    "population": 39005
  },
  {
    "name": "Aboisso",
    "lat": 5.4666991,
    "lon": -3.2000035,
    "population": 37654
  },
  {
    "name": "Santa Cruz Del Quiche",
    "lat": 15.0333031,
    "lon": -91.1332976,
    "population": 23618
  },
  {
    "name": "Buea",
    "lat": 4.1550031,
    "lon": 9.2310035,
    "population": 90088
  },
  {
    "name": "Kruj\u00eb",
    "lat": 41.5189982,
    "lon": 19.7970036,
    "population": 21286
  },
  {
    "name": "Fier",
    "lat": 40.730004,
    "lon": 19.5730026,
    "population": 82297
  },
  {
    "name": "Lushnj\u00eb",
    "lat": 40.9400011,
    "lon": 19.7160035,
    "population": 41469
  },
  {
    "name": "Puk\u00eb",
    "lat": 42.033303,
    "lon": 19.8833045,
    "population": 6495
  },
  {
    "name": "Bajram Curri",
    "lat": 42.3333001,
    "lon": 20.0833026,
    "population": 7967
  },
  {
    "name": "Kuk\u00ebs",
    "lat": 42.0830011,
    "lon": 20.4339965,
    "population": 17832
  },
  {
    "name": "Sarand\u00eb",
    "lat": 39.8770021,
    "lon": 19.9999986,
    "population": 15147
  },
  {
    "name": "Ersek\u00eb",
    "lat": 40.3333021,
    "lon": 20.6832965,
    "population": 7890
  },
  {
    "name": "Pogradec",
    "lat": 40.8999961,
    "lon": 20.6640006,
    "population": 40000
  },
  {
    "name": "Kor\u00e7\u00eb",
    "lat": 40.616676,
    "lon": 20.7666635,
    "population": 58259
  },
  {
    "name": "Berat",
    "lat": 40.709997,
    "lon": 19.9719996,
    "population": 46866
  },
  {
    "name": "\u00c7orovod\u00eb",
    "lat": 40.516704,
    "lon": 20.2332966,
    "population": 14046
  },
  {
    "name": "Gramsh",
    "lat": 40.866696,
    "lon": 20.1999965,
    "population": 11556
  },
  {
    "name": "Librazhd",
    "lat": 41.2000021,
    "lon": 20.3667036,
    "population": 12691
  },
  {
    "name": "Tepelen\u00eb",
    "lat": 40.2832981,
    "lon": 20.0332985,
    "population": 11955
  },
  {
    "name": "P\u00ebrmet",
    "lat": 40.233996,
    "lon": 20.3519976,
    "population": 10686
  },
  {
    "name": "Gjirokast\u00ebr",
    "lat": 40.0789981,
    "lon": 20.1490026,
    "population": 23437
  },
  {
    "name": "Peshkopi",
    "lat": 41.6833021,
    "lon": 20.4333035,
    "population": 14848
  },
  {
    "name": "Burrel",
    "lat": 41.6259991,
    "lon": 20.0160005,
    "population": 15405
  },
  {
    "name": "Lezh\u00eb",
    "lat": 41.7879991,
    "lon": 19.6540025,
    "population": 18695
  },
  {
    "name": "Rr\u00ebshen",
    "lat": 41.7833011,
    "lon": 19.8167046,
    "population": 10064
  },
  {
    "name": "Ashtarak",
    "lat": 40.3016667,
    "lon": 44.3591667,
    "population": 18779
  },
  {
    "name": "Mons",
    "lat": 50.4459991,
    "lon": 3.9390036,
    "population": 91277
  },
  {
    "name": "Hasselt",
    "lat": 50.92883816,
    "lon": 5.33853639,
    "population": 69222
  },
  {
    "name": "Ijevan",
    "lat": 40.8755556,
    "lon": 45.1491667,
    "population": 14737
  },
  {
    "name": "Artashat",
    "lat": 39.9538889,
    "lon": 44.5505556,
    "population": 20562
  },
  {
    "name": "Gavarr",
    "lat": 40.3588889,
    "lon": 45.1266667,
    "population": 21680
  },
  {
    "name": "Gadabay",
    "lat": 40.5655556,
    "lon": 45.8161111,
    "population": 8657
  },
  {
    "name": "Goranboy",
    "lat": 40.6102778,
    "lon": 46.7897222,
    "population": 7333
  },
  {
    "name": "Tovuz",
    "lat": 40.9922222,
    "lon": 45.6288889,
    "population": 12626
  },
  {
    "name": "Agdam",
    "lat": 40.9052778,
    "lon": 45.5563889,
    "population": 0
  },
  {
    "name": "Qabala",
    "lat": 40.9813889,
    "lon": 47.8458333,
    "population": 11867
  },
  {
    "name": "O\u011fuz",
    "lat": 41.0708333,
    "lon": 47.4583333,
    "population": 6876
  },
  {
    "name": "Yeghegnadzor",
    "lat": 39.7611111,
    "lon": 45.3333333,
    "population": 8200
  },
  {
    "name": "Qala i Naw",
    "lat": 34.9830001,
    "lon": 63.1332996,
    "population": 2997
  },
  {
    "name": "Chaghcharan",
    "lat": 34.5167011,
    "lon": 65.2500006,
    "population": 15000
  },
  {
    "name": "Lashkar Gah",
    "lat": 31.582998,
    "lon": 64.3599996,
    "population": 201546
  },
  {
    "name": "Zaranj",
    "lat": 31.1120011,
    "lon": 61.8869975,
    "population": 49851
  },
  {
    "name": "Tarin Kowt",
    "lat": 32.6332982,
    "lon": 65.8666986,
    "population": 10000
  },
  {
    "name": "Zareh Sharan",
    "lat": 32.8500002,
    "lon": 68.4167045,
    "population": 13737
  },
  {
    "name": "Asadabad",
    "lat": 34.866,
    "lon": 71.1500046,
    "population": 48400
  },
  {
    "name": "Taloqan",
    "lat": 36.729999,
    "lon": 69.5400036,
    "population": 64256
  },
  {
    "name": "Mahmud-E Eraqi",
    "lat": 35.0166961,
    "lon": 69.3333006,
    "population": 7407
  },
  {
    "name": "Mehtar Lam",
    "lat": 34.65,
    "lon": 70.1667005,
    "population": 17345
  },
  {
    "name": "Baraki Barak",
    "lat": 33.9667021,
    "lon": 68.9667035,
    "population": 22305
  },
  {
    "name": "Aybak",
    "lat": 36.2610001,
    "lon": 68.0400005,
    "population": 24000
  },
  {
    "name": "Mayda Shahr",
    "lat": 34.4500021,
    "lon": 68.7999966,
    "population": 35008
  },
  {
    "name": "Kampong Spoe",
    "lat": 11.4519961,
    "lon": 104.5189986,
    "population": 33231
  },
  {
    "name": "Kampong Thum",
    "lat": 12.7119961,
    "lon": 104.8889977,
    "population": 19951
  },
  {
    "name": "Prey Veng",
    "lat": 11.484,
    "lon": 105.3240036,
    "population": 74000
  },
  {
    "name": "Phnum Tbeng Meanchey",
    "lat": 13.816701,
    "lon": 104.9667037,
    "population": 24380
  },
  {
    "name": "Stoeng Treng",
    "lat": 13.5230041,
    "lon": 105.9740016,
    "population": 29665
  },
  {
    "name": "Kracheh",
    "lat": 12.4689961,
    "lon": 106.0239967,
    "population": 19975
  },
  {
    "name": "Senmonorom",
    "lat": 12.4499971,
    "lon": 107.1999997,
    "population": 7944
  },
  {
    "name": "Lumphat",
    "lat": 13.5070021,
    "lon": 106.9810026,
    "population": 19205
  },
  {
    "name": "Svay Rieng",
    "lat": 11.0799991,
    "lon": 105.8010036,
    "population": 23956
  },
  {
    "name": "Jijel",
    "lat": 36.821997,
    "lon": 5.7660036,
    "population": 148000
  },
  {
    "name": "Lokossa",
    "lat": 6.6150001,
    "lon": 1.7150045,
    "population": 86971
  },
  {
    "name": "Fada Ngourma",
    "lat": 12.0549961,
    "lon": 0.3609995,
    "population": 33910
  },
  {
    "name": "Tizi-Ouzou",
    "lat": 36.7117101,
    "lon": 4.0461444,
    "population": 144000
  },
  {
    "name": "Bordj Bou Arr\u00e9ridj",
    "lat": 36.0777088,
    "lon": 4.7646624,
    "population": 140000
  },
  {
    "name": "M'sila",
    "lat": 35.7000031,
    "lon": 4.5450006,
    "population": 150000
  },
  {
    "name": "Guelma",
    "lat": 36.4660021,
    "lon": 7.4279975,
    "population": 123590
  },
  {
    "name": "Oum el Bouaghi",
    "lat": 35.8499972,
    "lon": 7.1499965,
    "population": 100821
  },
  {
    "name": "Lovec",
    "lat": 43.1379991,
    "lon": 24.7190046,
    "population": 42211
  },
  {
    "name": "Montana",
    "lat": 43.414002,
    "lon": 23.2370016,
    "population": 47445
  },
  {
    "name": "Razgrad",
    "lat": 43.533999,
    "lon": 26.5359966,
    "population": 38285
  },
  {
    "name": "Arlon",
    "lat": 49.6833031,
    "lon": 5.8167005,
    "population": 26179
  },
  {
    "name": "Bregenz",
    "lat": 47.5166971,
    "lon": 9.7667016,
    "population": 26928
  },
  {
    "name": "Eisenstadt",
    "lat": 47.8332991,
    "lon": 16.5332975,
    "population": 13165
  },
  {
    "name": "Paro",
    "lat": 27.4293704,
    "lon": 89.4167773,
    "population": 15000
  },
  {
    "name": "Punakha",
    "lat": 27.584154,
    "lon": 89.8641347,
    "population": 5000
  },
  {
    "name": "Loikaw",
    "lat": 19.6650001,
    "lon": 97.2060036,
    "population": 17293
  },
  {
    "name": "Wangdue Prodrang",
    "lat": 27.433296,
    "lon": 89.9166967,
    "population": 5000
  },
  {
    "name": "Cankuzo",
    "lat": -3.1667039,
    "lon": 30.5166966,
    "population": 6585
  },
  {
    "name": "Karusi",
    "lat": -3.099996,
    "lon": 30.1629965,
    "population": 10705
  },
  {
    "name": "Rutana",
    "lat": -3.931002,
    "lon": 29.9930046,
    "population": 20893
  },
  {
    "name": "Ruyigi",
    "lat": -3.4810019,
    "lon": 30.2439966,
    "population": 38458
  },
  {
    "name": "Bubanza",
    "lat": -3.083301,
    "lon": 29.3667035,
    "population": 12728
  },
  {
    "name": "Kayanza",
    "lat": -2.8999979,
    "lon": 29.5667016,
    "population": 19443
  },
  {
    "name": "Makamba",
    "lat": -4.1333039,
    "lon": 29.7999996,
    "population": 19642
  },
  {
    "name": "Ngozi",
    "lat": -2.9120039,
    "lon": 29.8250016,
    "population": 21506
  },
  {
    "name": "Kirundo",
    "lat": -2.5847222,
    "lon": 30.0972222,
    "population": 6083
  },
  {
    "name": "Orodara",
    "lat": 10.9739971,
    "lon": -4.9079965,
    "population": 18632
  },
  {
    "name": "Solenzo",
    "lat": 12.1833333,
    "lon": -4.0833333,
    "population": 10385
  },
  {
    "name": "Nouna",
    "lat": 12.7289971,
    "lon": -3.8600005,
    "population": 29048
  },
  {
    "name": "D\u00e9dougou",
    "lat": 12.455001,
    "lon": -3.4640004,
    "population": 45341
  },
  {
    "name": "Gorom Gorom",
    "lat": 14.450004,
    "lon": -0.2332975,
    "population": 6691
  },
  {
    "name": "Djibo",
    "lat": 14.099004,
    "lon": -1.6270014,
    "population": 22223
  },
  {
    "name": "Tougan",
    "lat": 13.068999,
    "lon": -3.0699984,
    "population": 17590
  },
  {
    "name": "Kombissiri",
    "lat": 12.063996,
    "lon": -1.3339975,
    "population": 30137
  },
  {
    "name": "Ziniar\u00e9",
    "lat": 12.5769961,
    "lon": -1.2930024,
    "population": 12703
  },
  {
    "name": "Yako",
    "lat": 12.9539971,
    "lon": -2.2629955,
    "population": 22904
  },
  {
    "name": "R\u00e9o",
    "lat": 12.3334921,
    "lon": -2.4669445,
    "population": 37535
  },
  {
    "name": "Leo",
    "lat": 11.094003,
    "lon": -2.0979985,
    "population": 26884
  },
  {
    "name": "Sapouy",
    "lat": 11.5544444,
    "lon": -1.7736111,
    "population": 3837
  },
  {
    "name": "Boulsa",
    "lat": 12.6569971,
    "lon": -0.5689975,
    "population": 17489
  },
  {
    "name": "Zorgo",
    "lat": 12.2429971,
    "lon": -0.6110004,
    "population": 23892
  },
  {
    "name": "Koup\u00e9la",
    "lat": 12.177,
    "lon": -0.3560035,
    "population": 32052
  },
  {
    "name": "P\u00f4",
    "lat": 11.169,
    "lon": -1.1349985,
    "population": 17924
  },
  {
    "name": "Manga",
    "lat": 11.662002,
    "lon": -1.0649964,
    "population": 15173
  },
  {
    "name": "Di\u00e9bougou",
    "lat": 10.9520011,
    "lon": -3.2480004,
    "population": 12732
  },
  {
    "name": "Gaoua",
    "lat": 10.3249981,
    "lon": -3.1740024,
    "population": 28023
  },
  {
    "name": "Bogand\u00e9",
    "lat": 12.969,
    "lon": -0.1379965,
    "population": 9854
  },
  {
    "name": "Dori",
    "lat": 14.0339971,
    "lon": -0.0279985,
    "population": 37806
  },
  {
    "name": "Sebba",
    "lat": 13.4364122,
    "lon": 0.530443,
    "population": 3273
  },
  {
    "name": "Diapaga",
    "lat": 12.0770011,
    "lon": 1.7960046,
    "population": 26013
  },
  {
    "name": "Pa-an",
    "lat": 16.8499981,
    "lon": 97.6167006,
    "population": 50000
  },
  {
    "name": "Hakha",
    "lat": 22.6500031,
    "lon": 93.6167046,
    "population": 20000
  },
  {
    "name": "Taunggyi",
    "lat": 20.7819991,
    "lon": 97.0380006,
    "population": 160115
  },
  {
    "name": "Sagaing",
    "lat": 21.879999,
    "lon": 95.9619966,
    "population": 78739
  },
  {
    "name": "Muramvya",
    "lat": -3.260997,
    "lon": 29.6119986,
    "population": 18041
  },
  {
    "name": "Larnaka",
    "lat": 34.9170031,
    "lon": 33.6359976,
    "population": 48947
  },
  {
    "name": "Paphos",
    "lat": 34.7559152,
    "lon": 32.4224567,
    "population": 35961
  },
  {
    "name": "Laascaanood",
    "lat": 8.4332971,
    "lon": 47.3166996,
    "population": 60100
  },
  {
    "name": "Ceerigaabo",
    "lat": 10.5832981,
    "lon": 47.3333046,
    "population": 180000
  },
  {
    "name": "Santo Ant\u00f3nio",
    "lat": 1.6450021,
    "lon": 7.4120045,
    "population": 1156
  },
  {
    "name": "Daru",
    "lat": -9.109152,
    "lon": 143.2337226,
    "population": 15214
  },
  {
    "name": "Ramallah",
    "lat": 31.9029448,
    "lon": 35.2062094,
    "population": 24599
  },
  {
    "name": "Kyrenia",
    "lat": 35.3259991,
    "lon": 33.3330036,
    "population": 26701
  },
  {
    "name": "San Carlos",
    "lat": 9.657999,
    "lon": -68.5899985,
    "population": 77192
  },
  {
    "name": "San Felipe",
    "lat": 10.335996,
    "lon": -68.7459955,
    "population": 76766
  },
  {
    "name": "San Juan De Los Morros",
    "lat": 9.900999,
    "lon": -67.3540016,
    "population": 87739
  },
  {
    "name": "La Asunci\u00f3n",
    "lat": 11.033334,
    "lon": -63.8833315,
    "population": 35084
  },
  {
    "name": "Al Bayda",
    "lat": 13.9789981,
    "lon": 45.5740026,
    "population": 37821
  },
  {
    "name": "'Ataq",
    "lat": 14.5500031,
    "lon": 46.8000006,
    "population": 37315
  },
  {
    "name": "Marib",
    "lat": 15.4209961,
    "lon": 45.3339995,
    "population": 16794
  },
  {
    "name": "Roat\u00e1n",
    "lat": 16.329996,
    "lon": -86.5189976,
    "population": 7514
  },
  {
    "name": "Borgarnes",
    "lat": 64.5695028,
    "lon": -21.8623222,
    "population": 1783
  },
  {
    "name": "San Carlos",
    "lat": 11.1893594,
    "lon": -84.7758594,
    "population": 13451
  },
  {
    "name": "Onverwacht",
    "lat": 5.5999981,
    "lon": -55.1999965,
    "population": 2105
  },
  {
    "name": "Groningen",
    "lat": 5.796999,
    "lon": -55.4810035,
    "population": 3216
  },
  {
    "name": "Leninobod",
    "lat": 39.750003,
    "lon": 69.0000037,
    "population": 11468
  },
  {
    "name": "Mariscal Estigarribia",
    "lat": -22.0300021,
    "lon": -60.6099955,
    "population": 2500
  },
  {
    "name": "Caacup\u00e9",
    "lat": -25.3870019,
    "lon": -57.1400005,
    "population": 21696
  },
  {
    "name": "Jinotepe",
    "lat": 11.8459981,
    "lon": -86.1949975,
    "population": 29507
  },
  {
    "name": "Jinotega",
    "lat": 13.091004,
    "lon": -86.0000036,
    "population": 51073
  },
  {
    "name": "Masaya",
    "lat": 11.969001,
    "lon": -86.0949985,
    "population": 130113
  },
  {
    "name": "Sakakah",
    "lat": 29.9999971,
    "lon": 40.1333045,
    "population": 128332
  },
  {
    "name": "Bentiu",
    "lat": 9.2333333,
    "lon": 29.8333333,
    "population": 7653
  },
  {
    "name": "El Porvenir",
    "lat": 9.5416864,
    "lon": -78.971963,
    "population": 10
  },
  {
    "name": "Nazran",
    "lat": 43.2330031,
    "lon": 44.7830015,
    "population": 93357
  },
  {
    "name": "Ust' Ordynskiy",
    "lat": 52.8329971,
    "lon": 104.6999977,
    "population": 14538
  },
  {
    "name": "Dutse",
    "lat": 11.7991891,
    "lon": 9.3503346,
    "population": 17129
  },
  {
    "name": "Damaturu",
    "lat": 11.7489961,
    "lon": 11.9660046,
    "population": 255895
  },
  {
    "name": "Puyo",
    "lat": -1.483002,
    "lon": -77.9869976,
    "population": 24881
  },
  {
    "name": "Heredia",
    "lat": 9.991998,
    "lon": -84.1200025,
    "population": 21947
  },
  {
    "name": "Tulc\u00e1n",
    "lat": 0.821997,
    "lon": -77.7320005,
    "population": 83000
  },
  {
    "name": "Yopal",
    "lat": 5.3469991,
    "lon": -72.4059986,
    "population": 61029
  },
  {
    "name": "Klaksv\u00edk",
    "lat": 62.2374783,
    "lon": -6.5390115,
    "population": 4664
  },
  {
    "name": "La\u00ef",
    "lat": 9.3950011,
    "lon": 16.3050035,
    "population": 19382
  },
  {
    "name": "Mainz",
    "lat": 49.9824725,
    "lon": 8.2732192,
    "population": 184997
  },
  {
    "name": "Usti Nad Labem",
    "lat": 50.6629982,
    "lon": 14.0810046,
    "population": 94105
  },
  {
    "name": "Hradec Kr\u00e1lov\u00e9",
    "lat": 50.2059962,
    "lon": 15.8120015,
    "population": 95195
  },
  {
    "name": "Fderik",
    "lat": 22.6790011,
    "lon": -12.7070005,
    "population": 5760
  },
  {
    "name": "Aleg",
    "lat": 17.057997,
    "lon": -13.9089956,
    "population": 8388
  },
  {
    "name": "Akjoujt",
    "lat": 19.7469991,
    "lon": -14.3909995,
    "population": 370
  },
  {
    "name": "Duhok",
    "lat": 36.8667001,
    "lon": 43.0000026,
    "population": 986000
  },
  {
    "name": "Samarra",
    "lat": 34.193997,
    "lon": 43.8750006,
    "population": 158508
  },
  {
    "name": "Awasa",
    "lat": 7.0599961,
    "lon": 38.4769986,
    "population": 133097
  },
  {
    "name": "Gore",
    "lat": 8.148996,
    "lon": 35.5370045,
    "population": 9352
  },
  {
    "name": "Schwerin",
    "lat": 53.6333041,
    "lon": 11.4166986,
    "population": 96641
  },
  {
    "name": "Turgay",
    "lat": 49.6260001,
    "lon": 63.4989965,
    "population": 5277
  },
  {
    "name": "Yasuj",
    "lat": 30.6590041,
    "lon": 51.5940036,
    "population": 96786
  },
  {
    "name": "Shahrekord",
    "lat": 32.3209981,
    "lon": 50.8539966,
    "population": 129153
  },
  {
    "name": "Mangyshlak",
    "lat": 43.6904551,
    "lon": 51.1417356,
    "population": 147443
  },
  {
    "name": "Panaji",
    "lat": 15.491997,
    "lon": 73.8180006,
    "population": 65586
  },
  {
    "name": "Mobaye",
    "lat": 4.3200001,
    "lon": 21.1799975,
    "population": 19431
  },
  {
    "name": "El Cayo",
    "lat": 17.1559981,
    "lon": -89.0610025,
    "population": 16977
  },
  {
    "name": "Corozal",
    "lat": 18.3979981,
    "lon": -88.3880005,
    "population": 8724
  },
  {
    "name": "Mochudi",
    "lat": -24.377004,
    "lon": 26.1520026,
    "population": 39700
  },
  {
    "name": "San Andr\u00e9s",
    "lat": 12.5621371,
    "lon": -81.6903266,
    "population": 58257
  },
  {
    "name": "Bade",
    "lat": 24.9575,
    "lon": 121.2988889,
    "population": 172065
  },
  {
    "name": "Pingzhen",
    "lat": 24.9438889,
    "lon": 121.2161111,
    "population": 201632
  },
  {
    "name": "Taibao",
    "lat": 23.45,
    "lon": 120.3333333,
    "population": 35000
  },
  {
    "name": "Taoyuan",
    "lat": 24.9888889,
    "lon": 121.3111111,
    "population": 500000
  },
  {
    "name": "Yangmei",
    "lat": 24.9166667,
    "lon": 121.15,
    "population": 175000
  },
  {
    "name": "Yilan",
    "lat": 24.75,
    "lon": 121.75,
    "population": 150000
  },
  {
    "name": "Zhubei",
    "lat": 24.8333333,
    "lon": 121.0119444,
    "population": 200000
  },
  {
    "name": "Artigas",
    "lat": -30.4159871,
    "lon": -56.4860201,
    "population": 41909
  },
  {
    "name": "Baltasar Brum",
    "lat": -30.7300248,
    "lon": -57.3199744,
    "population": 2517
  },
  {
    "name": "Tranqueras",
    "lat": -31.200022,
    "lon": -55.7499669,
    "population": 7474
  },
  {
    "name": "Tacuaremb\u00f3",
    "lat": -31.709965,
    "lon": -55.9800045,
    "population": 54277
  },
  {
    "name": "Paso de los Toros",
    "lat": -32.8100012,
    "lon": -56.5100497,
    "population": 13221
  },
  {
    "name": "Vergara",
    "lat": -32.9299939,
    "lon": -53.9499992,
    "population": 3998
  },
  {
    "name": "Treinta y Tres",
    "lat": -33.2300272,
    "lon": -54.3800247,
    "population": 27684
  },
  {
    "name": "Santa Luc\u00eda",
    "lat": -34.4700032,
    "lon": -56.3999789,
    "population": 16438
  },
  {
    "name": "Jos\u00e9 Batlle y Ord\u00f3\u00f1ez",
    "lat": -33.4700126,
    "lon": -55.1200053,
    "population": 2438
  },
  {
    "name": "Minas",
    "lat": -34.3700093,
    "lon": -55.2300245,
    "population": 41180
  },
  {
    "name": "Maldonado",
    "lat": -34.9100281,
    "lon": -54.9599893,
    "population": 55478
  },
  {
    "name": "Punta del Este",
    "lat": -34.9699727,
    "lon": -54.9499899,
    "population": 159000
  },
  {
    "name": "Aigu\u00e1",
    "lat": -34.1999939,
    "lon": -54.7500021,
    "population": 2692
  },
  {
    "name": "La Paloma",
    "lat": -34.669991,
    "lon": -54.1699858,
    "population": 3230
  },
  {
    "name": "Faribault",
    "lat": 44.2904865,
    "lon": -93.2680127,
    "population": 25376
  },
  {
    "name": "Mankato",
    "lat": 44.1636208,
    "lon": -93.9991567,
    "population": 56325
  },
  {
    "name": "Albert Lea",
    "lat": 43.6477867,
    "lon": -93.3687043,
    "population": 20522
  },
  {
    "name": "Willmar",
    "lat": 45.1218828,
    "lon": -95.0433049,
    "population": 18473
  },
  {
    "name": "Brainerd",
    "lat": 46.3580088,
    "lon": -94.2008499,
    "population": 28187
  },
  {
    "name": "Crookston",
    "lat": 47.7737622,
    "lon": -96.6077314,
    "population": 8653
  },
  {
    "name": "Hardin",
    "lat": 45.731768,
    "lon": -107.612486,
    "population": 4448
  },
  {
    "name": "Glendive",
    "lat": 47.1085832,
    "lon": -104.7104926,
    "population": 5856
  },
  {
    "name": "Dillon",
    "lat": 45.2156755,
    "lon": -112.6839852,
    "population": 4463
  },
  {
    "name": "Polson",
    "lat": 47.6880052,
    "lon": -114.156686,
    "population": 5326
  },
  {
    "name": "Devils Lake",
    "lat": 48.112217,
    "lon": -98.8596869,
    "population": 7813
  },
  {
    "name": "Burley",
    "lat": 42.5358132,
    "lon": -113.7918763,
    "population": 14042
  },
  {
    "name": "Wallace",
    "lat": 47.4742198,
    "lon": -115.9268881,
    "population": 1028
  },
  {
    "name": "Kennewick",
    "lat": 46.211377,
    "lon": -119.1360979,
    "population": 102504
  },
  {
    "name": "Centralia",
    "lat": 46.7164107,
    "lon": -122.9529708,
    "population": 18880
  },
  {
    "name": "Glendale",
    "lat": 33.53543115,
    "lon": -112.17449498,
    "population": 500000
  },
  {
    "name": "Safford",
    "lat": 32.8338214,
    "lon": -109.7068801,
    "population": 10668
  },
  {
    "name": "Casa Grande",
    "lat": 32.8793742,
    "lon": -111.7566258,
    "population": 44655
  },
  {
    "name": "Mesa",
    "lat": 33.41479571,
    "lon": -111.82096696,
    "population": 1085394
  },
  {
    "name": "Lake Havasu City",
    "lat": 34.4982935,
    "lon": -114.3082789,
    "population": 56133
  },
  {
    "name": "Berkeley",
    "lat": 37.8739014,
    "lon": -122.271152,
    "population": 496356
  },
  {
    "name": "National City",
    "lat": 32.671945,
    "lon": -117.0980052,
    "population": 150000
  },
  {
    "name": "Mendocino",
    "lat": 39.3077674,
    "lon": -123.7994308,
    "population": 548
  },
  {
    "name": "Paso Robles",
    "lat": 35.6265967,
    "lon": -120.6899823,
    "population": 27157
  },
  {
    "name": "Riverside",
    "lat": 33.941945,
    "lon": -117.3980386,
    "population": 297554
  },
  {
    "name": "Delano",
    "lat": 35.7619373,
    "lon": -119.2430681,
    "population": 44757
  },
  {
    "name": "San Mateo",
    "lat": 37.54055384,
    "lon": -122.30321362,
    "population": 626406
  },
  {
    "name": "Vallejo",
    "lat": 38.1119489,
    "lon": -122.258052,
    "population": 146289
  },
  {
    "name": "Glenwood Springs",
    "lat": 39.54659,
    "lon": -107.3247,
    "population": 14004
  },
  {
    "name": "Aurora",
    "lat": 39.6958574,
    "lon": -104.808497,
    "population": 587540
  },
  {
    "name": "Greeley",
    "lat": 40.4191982,
    "lon": -104.739974,
    "population": 125410
  },
  {
    "name": "Tonopah",
    "lat": 38.0669904,
    "lon": -117.2289791,
    "population": 3261
  },
  {
    "name": "Deming",
    "lat": 32.2610915,
    "lon": -107.7557848,
    "population": 16298
  },
  {
    "name": "Truth or Consequences",
    "lat": 33.1335964,
    "lon": -107.2528956,
    "population": 7121
  },
  {
    "name": "Las Vegas",
    "lat": 35.5970119,
    "lon": -105.2225027,
    "population": 16998
  },
  {
    "name": "Farmington",
    "lat": 36.7541506,
    "lon": -108.1860944,
    "population": 43278
  },
  {
    "name": "Springfield",
    "lat": 44.0519481,
    "lon": -122.9780339,
    "population": 56032
  },
  {
    "name": "Tillamook",
    "lat": 45.4552474,
    "lon": -123.8425031,
    "population": 8145
  },
  {
    "name": "Ontario",
    "lat": 44.0266266,
    "lon": -116.9618895,
    "population": 12187
  },
  {
    "name": "La Grande",
    "lat": 45.3246869,
    "lon": -118.0866012,
    "population": 15004
  },
  {
    "name": "Richfield",
    "lat": 38.772477,
    "lon": -112.0832984,
    "population": 7621
  },
  {
    "name": "Nephi",
    "lat": 39.7102751,
    "lon": -111.8354841,
    "population": 5117
  },
  {
    "name": "Lander",
    "lat": 42.8330044,
    "lon": -108.7325985,
    "population": 6821
  },
  {
    "name": "Powell",
    "lat": 44.7586749,
    "lon": -108.7584367,
    "population": 6895
  },
  {
    "name": "Paragould",
    "lat": 36.0570872,
    "lon": -90.5028844,
    "population": 23450
  },
  {
    "name": "Iowa City",
    "lat": 41.6610862,
    "lon": -91.5299793,
    "population": 98516
  },
  {
    "name": "Ottumwa",
    "lat": 41.0128829,
    "lon": -92.414809,
    "population": 25982
  },
  {
    "name": "Spencer",
    "lat": 43.1452851,
    "lon": -95.1471745,
    "population": 11203
  },
  {
    "name": "Ft. Dodge",
    "lat": 42.5068227,
    "lon": -94.1802568,
    "population": 26879
  },
  {
    "name": "Hutchinson",
    "lat": 38.0654918,
    "lon": -97.9234908,
    "population": 44477
  },
  {
    "name": "Kansas City",
    "lat": 39.1135805,
    "lon": -94.6301464,
    "population": 501577
  },
  {
    "name": "Lawrence",
    "lat": 38.9597524,
    "lon": -95.2552299,
    "population": 92726
  },
  {
    "name": "Garden City",
    "lat": 37.975213,
    "lon": -100.8640865,
    "population": 28564
  },
  {
    "name": "Manhattan",
    "lat": 39.1940275,
    "lon": -96.5924351,
    "population": 56949
  },
  {
    "name": "Hays",
    "lat": 38.8793697,
    "lon": -99.322191,
    "population": 21394
  },
  {
    "name": "Goodland",
    "lat": 39.3484884,
    "lon": -101.7110374,
    "population": 4378
  },
  {
    "name": "Independence",
    "lat": 39.0911139,
    "lon": -94.4152812,
    "population": 148102
  },
  {
    "name": "Kirksville",
    "lat": 40.1936823,
    "lon": -92.5828091,
    "population": 19193
  },
  {
    "name": "Kearney",
    "lat": 40.7007056,
    "lon": -99.0811463,
    "population": 31553
  },
  {
    "name": "Grand Island",
    "lat": 40.9222683,
    "lon": -98.3579863,
    "population": 45651
  },
  {
    "name": "Alliance",
    "lat": 42.1013953,
    "lon": -102.8701915,
    "population": 8344
  },
  {
    "name": "Bartlesville",
    "lat": 36.7472001,
    "lon": -95.9805862,
    "population": 34610
  },
  {
    "name": "Enid",
    "lat": 36.395542,
    "lon": -97.8780931,
    "population": 46138
  },
  {
    "name": "Ardmore",
    "lat": 34.1810777,
    "lon": -97.1294049,
    "population": 24960
  },
  {
    "name": "McAlester",
    "lat": 34.9329956,
    "lon": -95.765974,
    "population": 21668
  },
  {
    "name": "Stillwater",
    "lat": 36.1353512,
    "lon": -97.0682976,
    "population": 47667
  },
  {
    "name": "Lead",
    "lat": 44.3508445,
    "lon": -103.7657699,
    "population": 2874
  },
  {
    "name": "Slidell",
    "lat": 30.2749595,
    "lon": -89.7810938,
    "population": 84239
  },
  {
    "name": "Lake Charles",
    "lat": 30.2263837,
    "lon": -93.217189,
    "population": 83821
  },
  {
    "name": "Metairie",
    "lat": 29.9838662,
    "lon": -90.1527765,
    "population": 394206
  },
  {
    "name": "New Iberia",
    "lat": 30.0035807,
    "lon": -91.8183079,
    "population": 37540
  },
  {
    "name": "Bryan",
    "lat": 30.6741858,
    "lon": -96.3696839,
    "population": 146692
  },
  {
    "name": "San Marcos",
    "lat": 29.8830713,
    "lon": -97.9411125,
    "population": 70371
  },
  {
    "name": "Longview",
    "lat": 32.5005343,
    "lon": -94.7402743,
    "population": 75920
  },
  {
    "name": "McAllen",
    "lat": 26.2030375,
    "lon": -98.2297254,
    "population": 364004
  },
  {
    "name": "Harlingen",
    "lat": 26.1975598,
    "lon": -97.6901976,
    "population": 110339
  },
  {
    "name": "Alice",
    "lat": 27.7504625,
    "lon": -98.0704845,
    "population": 22655
  },
  {
    "name": "New Braunfels",
    "lat": 29.6978113,
    "lon": -98.1263208,
    "population": 45840
  },
  {
    "name": "Cleburne",
    "lat": 32.3515253,
    "lon": -97.3924897,
    "population": 35545
  },
  {
    "name": "Brownwood",
    "lat": 31.7078953,
    "lon": -98.9823151,
    "population": 20988
  },
  {
    "name": "Alpine",
    "lat": 30.3607166,
    "lon": -103.6650009,
    "population": 6587
  },
  {
    "name": "Van Horn",
    "lat": 31.0424837,
    "lon": -104.8322423,
    "population": 2175
  },
  {
    "name": "Big Spring",
    "lat": 32.2431856,
    "lon": -101.4751862,
    "population": 24122
  },
  {
    "name": "Vernon",
    "lat": 34.1510537,
    "lon": -99.2903842,
    "population": 11660
  },
  {
    "name": "Childress",
    "lat": 34.4248871,
    "lon": -100.2139195,
    "population": 6557
  },
  {
    "name": "Hereford",
    "lat": 34.8219171,
    "lon": -102.3985924,
    "population": 15675
  },
  {
    "name": "Dalhart",
    "lat": 36.0608079,
    "lon": -102.5186109,
    "population": 7088
  },
  {
    "name": "Texas City",
    "lat": 29.4108779,
    "lon": -94.9627672,
    "population": 69914
  },
  {
    "name": "Pasadena",
    "lat": 29.6608626,
    "lon": -95.147743,
    "population": 628492
  },
  {
    "name": "Baytown",
    "lat": 29.7558439,
    "lon": -94.9677281,
    "population": 86034
  },
  {
    "name": "Arlington",
    "lat": 32.6847608,
    "lon": -97.0202385,
    "population": 724777
  },
  {
    "name": "Guasdualito",
    "lat": 7.2399831,
    "lon": -70.7399821,
    "population": 30860
  },
  {
    "name": "Barinas",
    "lat": 8.5999776,
    "lon": -70.250012,
    "population": 284289
  },
  {
    "name": "Valera",
    "lat": 9.3199595,
    "lon": -70.6200153,
    "population": 191167
  },
  {
    "name": "Cabimas",
    "lat": 10.4299951,
    "lon": -71.4499905,
    "population": 441094
  },
  {
    "name": "Carora",
    "lat": 10.1899839,
    "lon": -70.0799966,
    "population": 149711
  },
  {
    "name": "Guanare",
    "lat": 9.049976,
    "lon": -69.7500167,
    "population": 151642
  },
  {
    "name": "New London",
    "lat": 41.3555235,
    "lon": -72.1000283,
    "population": 96178
  },
  {
    "name": "Stamford",
    "lat": 41.0533456,
    "lon": -73.5391911,
    "population": 746920
  },
  {
    "name": "Waterbury",
    "lat": 41.5500078,
    "lon": -73.050022,
    "population": 174236
  },
  {
    "name": "New Bedford",
    "lat": 41.6561253,
    "lon": -70.9446983,
    "population": 136082
  },
  {
    "name": "Springfield",
    "lat": 42.1200246,
    "lon": -72.579999,
    "population": 421780
  },
  {
    "name": "Salem",
    "lat": 42.5224989,
    "lon": -70.8830917,
    "population": 335509
  },
  {
    "name": "Pittsfield",
    "lat": 42.4481958,
    "lon": -73.2598283,
    "population": 46230
  },
  {
    "name": "Montpelier",
    "lat": 44.2599715,
    "lon": -72.5758132,
    "population": 8538
  },
  {
    "name": "Auburn",
    "lat": 32.6097007,
    "lon": -85.4808395,
    "population": 73929
  },
  {
    "name": "Florence",
    "lat": 34.7996963,
    "lon": -87.6772429,
    "population": 45349
  },
  {
    "name": "Winter Haven",
    "lat": 28.0219188,
    "lon": -81.7330062,
    "population": 108932
  },
  {
    "name": "Melbourne",
    "lat": 28.0833104,
    "lon": -80.6083204,
    "population": 265414
  },
  {
    "name": "Homestead",
    "lat": 25.468302,
    "lon": -80.4777857,
    "population": 85967
  },
  {
    "name": "Sanford",
    "lat": 28.7899597,
    "lon": -81.2799848,
    "population": 333460
  },
  {
    "name": "Miami Beach",
    "lat": 25.8099195,
    "lon": -80.1317811,
    "population": 407750
  },
  {
    "name": "Coral Springs",
    "lat": 26.270837,
    "lon": -80.2708216,
    "population": 250000
  },
  {
    "name": "Port Charlotte",
    "lat": 27.0000432,
    "lon": -82.1056967,
    "population": 64279
  },
  {
    "name": "Spring Hill",
    "lat": 28.4789451,
    "lon": -82.547711,
    "population": 114697
  },
  {
    "name": "Palm Coast",
    "lat": 29.5380019,
    "lon": -81.2232957,
    "population": 48577
  },
  {
    "name": "Palatka",
    "lat": 29.6476852,
    "lon": -81.6513058,
    "population": 21452
  },
  {
    "name": "Leesburg",
    "lat": 28.8105011,
    "lon": -81.883333,
    "population": 49574
  },
  {
    "name": "Lake City",
    "lat": 30.1897193,
    "lon": -82.6397467,
    "population": 29395
  },
  {
    "name": "Crestview",
    "lat": 30.7542068,
    "lon": -86.5726075,
    "population": 22403
  },
  {
    "name": "Panama City",
    "lat": 30.15861,
    "lon": -85.6552733,
    "population": 100072
  },
  {
    "name": "Dalton",
    "lat": 34.7697239,
    "lon": -84.9703022,
    "population": 58557
  },
  {
    "name": "Marietta",
    "lat": 33.9556134,
    "lon": -84.5432481,
    "population": 61360
  },
  {
    "name": "Waycross",
    "lat": 31.213817,
    "lon": -82.3549063,
    "population": 19824
  },
  {
    "name": "La Grange",
    "lat": 33.0364706,
    "lon": -85.0318746,
    "population": 31776
  },
  {
    "name": "Southaven",
    "lat": 34.9689107,
    "lon": -90.0034575,
    "population": 121268
  },
  {
    "name": "Meridian",
    "lat": 32.364186,
    "lon": -88.7036143,
    "population": 42290
  },
  {
    "name": "Laurel",
    "lat": 31.6973792,
    "lon": -89.1392725,
    "population": 28841
  },
  {
    "name": "Spartanburg",
    "lat": 34.9494287,
    "lon": -81.9322706,
    "population": 124126
  },
  {
    "name": "Orangeburg",
    "lat": 33.4968042,
    "lon": -80.8622325,
    "population": 35472
  },
  {
    "name": "Galesburg",
    "lat": 40.9477706,
    "lon": -90.3710836,
    "population": 32094
  },
  {
    "name": "Joliet",
    "lat": 41.5299831,
    "lon": -88.106674,
    "population": 578460
  },
  {
    "name": "Cape Girardeau",
    "lat": 37.3058224,
    "lon": -89.5180866,
    "population": 40427
  },
  {
    "name": "Rockford",
    "lat": 42.2697054,
    "lon": -89.0696902,
    "population": 255978
  },
  {
    "name": "Evanston",
    "lat": 42.0483494,
    "lon": -87.6999547,
    "population": 350000
  },
  {
    "name": "Rock Island",
    "lat": 41.4933962,
    "lon": -90.5346137,
    "population": 165728
  },
  {
    "name": "Elgin",
    "lat": 42.0394611,
    "lon": -88.2899187,
    "population": 389514
  },
  {
    "name": "Richmond",
    "lat": 39.8288983,
    "lon": -84.8902812,
    "population": 44400
  },
  {
    "name": "Terre Haute",
    "lat": 39.4666465,
    "lon": -87.4138739,
    "population": 73236
  },
  {
    "name": "Lafayette",
    "lat": 40.4172087,
    "lon": -86.8782477,
    "population": 133977
  },
  {
    "name": "Marion",
    "lat": 40.558337,
    "lon": -85.6591748,
    "population": 38297
  },
  {
    "name": "South Bend",
    "lat": 41.6833071,
    "lon": -86.2500173,
    "population": 239822
  },
  {
    "name": "New Albany",
    "lat": 38.3108773,
    "lon": -85.8212838,
    "population": 120625
  },
  {
    "name": "Elkhart",
    "lat": 41.6829454,
    "lon": -85.9687942,
    "population": 149190
  },
  {
    "name": "Hopkinsville",
    "lat": 36.8654875,
    "lon": -87.4886239,
    "population": 35604
  },
  {
    "name": "London",
    "lat": 37.1288823,
    "lon": -84.0833537,
    "population": 7844
  },
  {
    "name": "Madisonville",
    "lat": 37.3327458,
    "lon": -87.5022148,
    "population": 22294
  },
  {
    "name": "Rocky Mount",
    "lat": 35.9379989,
    "lon": -77.7907662,
    "population": 58361
  },
  {
    "name": "Salisbury",
    "lat": 35.67078,
    "lon": -80.4744784,
    "population": 41352
  },
  {
    "name": "Durham",
    "lat": 35.9999589,
    "lon": -78.9199996,
    "population": 309495
  },
  {
    "name": "Lumberton",
    "lat": 34.6272003,
    "lon": -79.0119062,
    "population": 32785
  },
  {
    "name": "Zanesville",
    "lat": 39.9402869,
    "lon": -82.013325,
    "population": 40052
  },
  {
    "name": "Mansfield",
    "lat": 40.7583248,
    "lon": -82.5155424,
    "population": 77768
  },
  {
    "name": "Bowling Green",
    "lat": 41.3747471,
    "lon": -83.6513904,
    "population": 37080
  },
  {
    "name": "Springfield",
    "lat": 39.9200039,
    "lon": -83.799986,
    "population": 84576
  },
  {
    "name": "Lancaster",
    "lat": 39.7192151,
    "lon": -82.6053044,
    "population": 48829
  },
  {
    "name": "Johnson City",
    "lat": 36.3133248,
    "lon": -82.3536143,
    "population": 77538
  },
  {
    "name": "Kingsport",
    "lat": 36.5483234,
    "lon": -82.5619479,
    "population": 57467
  },
  {
    "name": "Columbia",
    "lat": 35.6149953,
    "lon": -87.0352666,
    "population": 116091
  },
  {
    "name": "Barlett",
    "lat": 35.2229004,
    "lon": -89.8410901,
    "population": 286423
  },
  {
    "name": "Blacksburg",
    "lat": 37.2294188,
    "lon": -80.4141978,
    "population": 67508
  },
  {
    "name": "Harrisonburg",
    "lat": 38.4494218,
    "lon": -78.8691759,
    "population": 42538
  },
  {
    "name": "Petersburg",
    "lat": 37.2277651,
    "lon": -77.402237,
    "population": 118577
  },
  {
    "name": "Hampton",
    "lat": 37.0300252,
    "lon": -76.3499498,
    "population": 366766
  },
  {
    "name": "Sheboygan",
    "lat": 43.7508295,
    "lon": -87.7144241,
    "population": 53705
  },
  {
    "name": "Waukesha",
    "lat": 43.0116498,
    "lon": -88.2313693,
    "population": 249912
  },
  {
    "name": "La Crosse",
    "lat": 43.801369,
    "lon": -91.2394285,
    "population": 87381
  },
  {
    "name": "Eau Claire",
    "lat": 44.8113591,
    "lon": -91.4983533,
    "population": 79740
  },
  {
    "name": "Tomah",
    "lat": 43.9850529,
    "lon": -90.5038921,
    "population": 12997
  },
  {
    "name": "Janesville",
    "lat": 42.682626,
    "lon": -89.0215794,
    "population": 69278
  },
  {
    "name": "Appleton",
    "lat": 44.268679,
    "lon": -88.4005062,
    "population": 203665
  },
  {
    "name": "Parkersburg",
    "lat": 39.2666588,
    "lon": -81.5616472,
    "population": 61935
  },
  {
    "name": "White Sulphur Springs",
    "lat": 37.7938804,
    "lon": -80.3034811,
    "population": 2407
  },
  {
    "name": "Clarksburg",
    "lat": 39.2832727,
    "lon": -80.3369157,
    "population": 28773
  },
  {
    "name": "Dover",
    "lat": 39.1580866,
    "lon": -75.524703,
    "population": 76039
  },
  {
    "name": "St. Charles",
    "lat": 38.6030558,
    "lon": -76.9389319,
    "population": 69208
  },
  {
    "name": "Annapolis",
    "lat": 38.9783301,
    "lon": -76.4924992,
    "population": 81300
  },
  {
    "name": "Hagerstown",
    "lat": 39.6416488,
    "lon": -77.7202796,
    "population": 79662
  },
  {
    "name": "Paterson",
    "lat": 40.9199945,
    "lon": -74.1700053,
    "population": 151205
  },
  {
    "name": "Saratoga Springs",
    "lat": 43.0829633,
    "lon": -73.7850159,
    "population": 55793
  },
  {
    "name": "Poughkeepsie",
    "lat": 41.7002311,
    "lon": -73.9214159,
    "population": 170996
  },
  {
    "name": "Plattsburgh",
    "lat": 44.6949837,
    "lon": -73.4579816,
    "population": 29238
  },
  {
    "name": "Beaver Falls",
    "lat": 40.7519428,
    "lon": -80.3194233,
    "population": 120125
  },
  {
    "name": "Altoona",
    "lat": 40.5185978,
    "lon": -78.3949671,
    "population": 78607
  },
  {
    "name": "Williamsport",
    "lat": 41.241086,
    "lon": -77.0013829,
    "population": 56877
  },
  {
    "name": "Lancaster",
    "lat": 40.0377745,
    "lon": -76.3057664,
    "population": 209489
  },
  {
    "name": "Allentown",
    "lat": 40.5999882,
    "lon": -75.5000275,
    "population": 496442
  },
  {
    "name": "Puerto la Cruz",
    "lat": 10.1699593,
    "lon": -64.6800161,
    "population": 546616
  },
  {
    "name": "Anaco",
    "lat": 9.4400039,
    "lon": -64.4600037,
    "population": 117596
  },
  {
    "name": "Los Teques",
    "lat": 10.4199699,
    "lon": -67.0200283,
    "population": 303470
  },
  {
    "name": "Valle de la Pascua",
    "lat": 9.2099921,
    "lon": -66.019986,
    "population": 89080
  },
  {
    "name": "Ocumare del Tuy",
    "lat": 10.1199882,
    "lon": -66.7799913,
    "population": 166072
  },
  {
    "name": "Car\u00fapano",
    "lat": 10.6700063,
    "lon": -63.2300013,
    "population": 126293
  },
  {
    "name": "San Fernando",
    "lat": 10.2804617,
    "lon": -61.4593768,
    "population": 166039
  },
  {
    "name": "Brownsweg",
    "lat": 5.0200153,
    "lon": -55.1699506,
    "population": 4582
  },
  {
    "name": "Moengo",
    "lat": 5.6300039,
    "lon": -54.409997,
    "population": 7766
  },
  {
    "name": "Nieuw Amsterdam",
    "lat": 5.9099868,
    "lon": -55.0700084,
    "population": 4935
  },
  {
    "name": "Waterville",
    "lat": 44.5518917,
    "lon": -69.6457854,
    "population": 25152
  },
  {
    "name": "Calais",
    "lat": 45.1659886,
    "lon": -67.242392,
    "population": 3306
  },
  {
    "name": "Houlton",
    "lat": 46.1255166,
    "lon": -67.8397199,
    "population": 6703
  },
  {
    "name": "Benton Harbor",
    "lat": 42.1166398,
    "lon": -86.4541909,
    "population": 58382
  },
  {
    "name": "Battle Creek",
    "lat": 42.3210976,
    "lon": -85.1797467,
    "population": 70820
  },
  {
    "name": "Bay City",
    "lat": 43.5944566,
    "lon": -83.8888953,
    "population": 68549
  },
  {
    "name": "Alpena",
    "lat": 45.0616022,
    "lon": -83.4326958,
    "population": 18330
  },
  {
    "name": "Iron Mountain",
    "lat": 45.8224601,
    "lon": -88.0640927,
    "population": 16183
  },
  {
    "name": "Ironwood",
    "lat": 46.4558065,
    "lon": -90.1593911,
    "population": 7064
  },
  {
    "name": "Marbella",
    "lat": 36.5166199,
    "lon": -4.8833301,
    "population": 186131
  },
  {
    "name": "Linares",
    "lat": 38.0833201,
    "lon": -3.6333547,
    "population": 59761
  },
  {
    "name": "Algeciras",
    "lat": 36.13188159,
    "lon": -5.45265984,
    "population": 111027
  },
  {
    "name": "Le\u00f3n",
    "lat": 42.5799707,
    "lon": -5.5700066,
    "population": 136227
  },
  {
    "name": "Matar\u00f3",
    "lat": 41.5399567,
    "lon": 2.4500207,
    "population": 183293
  },
  {
    "name": "Latakia",
    "lat": 35.539987,
    "lon": 35.779976,
    "population": 539147
  },
  {
    "name": "Madinat ath Thawrah",
    "lat": 35.8366614,
    "lon": 38.5480757,
    "population": 87880
  },
  {
    "name": "Izaz",
    "lat": 36.588786,
    "lon": 37.0440848,
    "population": 31534
  },
  {
    "name": "Manbij",
    "lat": 36.5266451,
    "lon": 37.9563289,
    "population": 120169
  },
  {
    "name": "Idlib",
    "lat": 35.9297048,
    "lon": 36.6316552,
    "population": 128840
  },
  {
    "name": "Al Qamishli",
    "lat": 37.0300252,
    "lon": 41.2299792,
    "population": 104107
  },
  {
    "name": "Al Hasakah",
    "lat": 36.4832886,
    "lon": 40.7500085,
    "population": 128100
  },
  {
    "name": "Douma",
    "lat": 33.5833364,
    "lon": 36.3999898,
    "population": 496145
  },
  {
    "name": "Dhamar",
    "lat": 14.5574693,
    "lon": 44.3874609,
    "population": 191259
  },
  {
    "name": "Ibb",
    "lat": 13.9758511,
    "lon": 44.170885,
    "population": 234837
  },
  {
    "name": "Chur",
    "lat": 46.8500202,
    "lon": 9.5000297,
    "population": 38293
  },
  {
    "name": "Sand Point",
    "lat": 55.3397087,
    "lon": -160.4971908,
    "population": 667
  },
  {
    "name": "Hydaburg",
    "lat": 55.2139799,
    "lon": -132.8006385,
    "population": 382
  },
  {
    "name": "Mekoryuk",
    "lat": 60.3886467,
    "lon": -166.1899372,
    "population": 99
  },
  {
    "name": "Atqasuk",
    "lat": 70.4693795,
    "lon": -157.395778,
    "population": 201
  },
  {
    "name": "Port Heiden",
    "lat": 56.9490936,
    "lon": -158.6268915,
    "population": 102
  },
  {
    "name": "Perryville",
    "lat": 55.9186139,
    "lon": -159.1511489,
    "population": 113
  },
  {
    "name": "Dillingham",
    "lat": 59.0565603,
    "lon": -158.4803121,
    "population": 2488
  },
  {
    "name": "Goodnews Bay",
    "lat": 59.1209927,
    "lon": -161.5871302,
    "population": 230
  },
  {
    "name": "Nyac",
    "lat": 61.0041433,
    "lon": -159.9404806,
    "population": 100
  },
  {
    "name": "Tununak",
    "lat": 60.5854867,
    "lon": -165.2557892,
    "population": 352
  },
  {
    "name": "Mountain Village",
    "lat": 62.0855243,
    "lon": -163.729009,
    "population": 755
  },
  {
    "name": "Emmonak",
    "lat": 62.7769808,
    "lon": -164.5229916,
    "population": 100
  },
  {
    "name": "Kaltag",
    "lat": 64.3271963,
    "lon": -158.7218986,
    "population": 190
  },
  {
    "name": "Teller",
    "lat": 65.2635991,
    "lon": -166.3607864,
    "population": 83
  },
  {
    "name": "Koyukuk",
    "lat": 64.8802891,
    "lon": -157.7008499,
    "population": 101
  },
  {
    "name": "Kobuk",
    "lat": 66.9072455,
    "lon": -156.8809774,
    "population": 151
  },
  {
    "name": "Selawik",
    "lat": 66.603879,
    "lon": -160.0093911,
    "population": 832
  },
  {
    "name": "Talkeetna",
    "lat": 62.3237785,
    "lon": -150.1094269,
    "population": 1078
  },
  {
    "name": "Whittier",
    "lat": 60.7841567,
    "lon": -148.6776797,
    "population": 177
  },
  {
    "name": "Montana",
    "lat": 62.0796849,
    "lon": -150.0727625,
    "population": 10
  },
  {
    "name": "Lake Minchumina",
    "lat": 63.8828306,
    "lon": -152.3121865,
    "population": 32
  },
  {
    "name": "Cantwell",
    "lat": 63.3915945,
    "lon": -148.9507896,
    "population": 222
  },
  {
    "name": "Gulkana",
    "lat": 62.2713528,
    "lon": -145.3821961,
    "population": 119
  },
  {
    "name": "Eagle",
    "lat": 64.787995,
    "lon": -141.1999966,
    "population": 104
  },
  {
    "name": "Nenana",
    "lat": 64.5637968,
    "lon": -149.0930032,
    "population": 75
  },
  {
    "name": "Big Delta",
    "lat": 64.1525299,
    "lon": -145.8421938,
    "population": 591
  },
  {
    "name": "Allakaket",
    "lat": 66.5654834,
    "lon": -152.6454995,
    "population": 97
  },
  {
    "name": "Tanana",
    "lat": 65.1718734,
    "lon": -152.0787899,
    "population": 308
  },
  {
    "name": "Borl\u00e4nge",
    "lat": 60.4833224,
    "lon": 15.4166711,
    "population": 39422
  },
  {
    "name": "V\u00e4ster\u00e5s",
    "lat": 59.60908376,
    "lon": 16.55767981,
    "population": 107194
  },
  {
    "name": "Mykolayiv",
    "lat": 46.9677391,
    "lon": 31.984342,
    "population": 510840
  },
  {
    "name": "Chernihiv",
    "lat": 51.5049298,
    "lon": 31.3015413,
    "population": 307684
  },
  {
    "name": "Khmelnytskyy",
    "lat": 49.4249276,
    "lon": 27.0015454,
    "population": 398346
  },
  {
    "name": "Kamyanets-Podilskyy",
    "lat": 48.684301,
    "lon": 26.5808992,
    "population": 114658
  },
  {
    "name": "Drohobych",
    "lat": 49.344364,
    "lon": 23.4993819,
    "population": 124269
  },
  {
    "name": "Uzhgorod",
    "lat": 48.629989,
    "lon": 22.2500008,
    "population": 150832
  },
  {
    "name": "Uman",
    "lat": 48.7542967,
    "lon": 30.2109102,
    "population": 87658
  },
  {
    "name": "Brovary",
    "lat": 50.4943197,
    "lon": 30.7809012,
    "population": 88506
  },
  {
    "name": "Bila Tserkva",
    "lat": 49.7743119,
    "lon": 30.1309151,
    "population": 199163
  },
  {
    "name": "Illichivsk",
    "lat": 46.3000021,
    "lon": 30.666593,
    "population": 54102
  },
  {
    "name": "Konotop",
    "lat": 51.2423877,
    "lon": 33.2090218,
    "population": 103547
  },
  {
    "name": "Kryvyy Rih",
    "lat": 47.9283264,
    "lon": 33.3449825,
    "population": 652380
  },
  {
    "name": "Makiyivka",
    "lat": 48.0296639,
    "lon": 37.9746224,
    "population": 376610
  },
  {
    "name": "Horlivka",
    "lat": 48.2996474,
    "lon": 38.0546691,
    "population": 396885
  },
  {
    "name": "Kramatorsk",
    "lat": 48.7193634,
    "lon": 37.5343908,
    "population": 184105
  },
  {
    "name": "Berdyansk",
    "lat": 46.7568217,
    "lon": 36.7868396,
    "population": 118284
  },
  {
    "name": "Ash Shihr",
    "lat": 14.7593174,
    "lon": 49.6091577,
    "population": 54274
  },
  {
    "name": "Umm al Qaywayn",
    "lat": 25.5652728,
    "lon": 55.5533427,
    "population": 44411
  },
  {
    "name": "Sharjah",
    "lat": 25.3713829,
    "lon": 55.4064782,
    "population": 1103027
  },
  {
    "name": "Serdar",
    "lat": 38.9755396,
    "lon": 56.2777946,
    "population": 48458
  },
  {
    "name": "Celeken",
    "lat": 39.4361549,
    "lon": 53.1225912,
    "population": 1206
  },
  {
    "name": "Tejen",
    "lat": 37.3786086,
    "lon": 60.4960384,
    "population": 67294
  },
  {
    "name": "Buzmeyin",
    "lat": 38.0516683,
    "lon": 58.210028,
    "population": 40813
  },
  {
    "name": "Koneurgench",
    "lat": 42.3166535,
    "lon": 59.1666621,
    "population": 31400
  },
  {
    "name": "Khujayli",
    "lat": 42.4047101,
    "lon": 59.4516577,
    "population": 60401
  },
  {
    "name": "Urgut",
    "lat": 39.4007074,
    "lon": 67.2606901,
    "population": 99675
  },
  {
    "name": "Kattaqorgon",
    "lat": 39.9007027,
    "lon": 66.2607511,
    "population": 247113
  },
  {
    "name": "Denow",
    "lat": 38.2771584,
    "lon": 67.8871635,
    "population": 217274
  },
  {
    "name": "Qurghonteppa",
    "lat": 37.8373145,
    "lon": 68.7713472,
    "population": 311574
  },
  {
    "name": "Konibodom",
    "lat": 40.2921517,
    "lon": 70.4271635,
    "population": 259876
  },
  {
    "name": "Guliston",
    "lat": 40.495731,
    "lon": 68.7907259,
    "population": 95520
  },
  {
    "name": "Iskandar",
    "lat": 41.5507312,
    "lon": 69.6807491,
    "population": 195633
  },
  {
    "name": "Chirchiq",
    "lat": 41.4549748,
    "lon": 69.5599812,
    "population": 167842
  },
  {
    "name": "Nacaome",
    "lat": 13.5299868,
    "lon": -87.4899675,
    "population": 47000
  },
  {
    "name": "Santa Rosa de Cop\u00e1n",
    "lat": 14.7699886,
    "lon": -88.7799921,
    "population": 35529
  },
  {
    "name": "Corriverton",
    "lat": 5.9000391,
    "lon": -57.1699836,
    "population": 12000
  },
  {
    "name": "Ituni",
    "lat": 5.4300161,
    "lon": -58.2499952,
    "population": 100
  },
  {
    "name": "Lethem",
    "lat": 3.3899597,
    "lon": -59.8000297,
    "population": 352
  },
  {
    "name": "Gij\u00f3n",
    "lat": 43.5300161,
    "lon": -5.6700004,
    "population": 335972
  },
  {
    "name": "Vitoria",
    "lat": 42.8499801,
    "lon": -2.6699768,
    "population": 224578
  },
  {
    "name": "Vatican City",
    "lat": 41.9032822,
    "lon": 12.4533865,
    "population": 832
  },
  {
    "name": "Greenock",
    "lat": 55.93329,
    "lon": -4.7500308,
    "population": 74635
  },
  {
    "name": "Sunderland",
    "lat": 54.90340708,
    "lon": -1.37988156,
    "population": 452934
  },
  {
    "name": "Southampton",
    "lat": 50.9000314,
    "lon": -1.3999768,
    "population": 384417
  },
  {
    "name": "Bristol",
    "lat": 51.4499978,
    "lon": -2.5833155,
    "population": 553528
  },
  {
    "name": "Bournemouth",
    "lat": 50.7299901,
    "lon": -1.9000497,
    "population": 426945
  },
  {
    "name": "Omagh",
    "lat": 54.6000122,
    "lon": -7.3000043,
    "population": 21056
  },
  {
    "name": "Chester",
    "lat": 53.18632509,
    "lon": -2.90296458,
    "population": 89531
  },
  {
    "name": "Swansea",
    "lat": 51.6299868,
    "lon": -3.9500021,
    "population": 294339
  },
  {
    "name": "Carlisle",
    "lat": 54.8799951,
    "lon": -2.9299868,
    "population": 72633
  },
  {
    "name": "Ayd\u0131n",
    "lat": 37.8499752,
    "lon": 27.8500207,
    "population": 198857
  },
  {
    "name": "L\u00fcleburgaz",
    "lat": 41.4066573,
    "lon": 27.3552189,
    "population": 90899
  },
  {
    "name": "Isparta",
    "lat": 37.7699801,
    "lon": 30.5299605,
    "population": 172334
  },
  {
    "name": "K\u00fctahya",
    "lat": 39.4200086,
    "lon": 29.9299971,
    "population": 185008
  },
  {
    "name": "Mu\u011fla",
    "lat": 37.2163705,
    "lon": 28.3638912,
    "population": 48183
  },
  {
    "name": "El\u00e2z\u0131\u011f",
    "lat": 38.6799762,
    "lon": 39.2299979,
    "population": 271492
  },
  {
    "name": "Kahramanmara\u015f",
    "lat": 37.6099898,
    "lon": 36.9450211,
    "population": 376045
  },
  {
    "name": "Icel",
    "lat": 36.7999876,
    "lon": 34.6199951,
    "population": 616990
  },
  {
    "name": "Corum",
    "lat": 40.5199931,
    "lon": 34.9500008,
    "population": 183418
  },
  {
    "name": "Rize",
    "lat": 41.0208411,
    "lon": 40.5218571,
    "population": 279450
  },
  {
    "name": "Tatvan",
    "lat": 38.5065759,
    "lon": 42.2815946,
    "population": 73222
  },
  {
    "name": "Eumseong",
    "lat": 36.9352507,
    "lon": 127.6897147,
    "population": 10077
  },
  {
    "name": "Cheongju",
    "lat": 36.6438989,
    "lon": 127.5011991,
    "population": 775096
  },
  {
    "name": "Wonju",
    "lat": 37.3551475,
    "lon": 127.9396219,
    "population": 243387
  },
  {
    "name": "Chuncheon",
    "lat": 37.8747024,
    "lon": 127.7341565,
    "population": 226509
  },
  {
    "name": "Ansan",
    "lat": 37.3480678,
    "lon": 126.8595328,
    "population": 739493
  },
  {
    "name": "Iksan",
    "lat": 35.9409703,
    "lon": 126.9454191,
    "population": 283501
  },
  {
    "name": "Gyeongju",
    "lat": 35.8427592,
    "lon": 129.211689,
    "population": 155237
  },
  {
    "name": "Changwon",
    "lat": 35.2191022,
    "lon": 128.583562,
    "population": 1081499
  },
  {
    "name": "Southend-on-Sea",
    "lat": 51.5500175,
    "lon": 0.7199971,
    "population": 618386
  },
  {
    "name": "Reading",
    "lat": 51.4699707,
    "lon": -0.9800283,
    "population": 369804
  },
  {
    "name": "Leicester",
    "lat": 52.6299774,
    "lon": -1.1332489,
    "population": 457983
  },
  {
    "name": "Bradford",
    "lat": 53.79167546,
    "lon": -1.75446465,
    "population": 501700
  },
  {
    "name": "Sheffield",
    "lat": 53.3666767,
    "lon": -1.4999966,
    "population": 1292900
  },
  {
    "name": "Polatl\u0131",
    "lat": 39.5841588,
    "lon": 32.1472261,
    "population": 93262
  },
  {
    "name": "Karab\u00fck",
    "lat": 41.2000033,
    "lon": 32.600015,
    "population": 128564
  },
  {
    "name": "Nusaybin",
    "lat": 37.0749837,
    "lon": 41.218352,
    "population": 152668
  },
  {
    "name": "Hakk\u00e2ri",
    "lat": 37.5744365,
    "lon": 43.7408337,
    "population": 77699
  },
  {
    "name": "Szombathely",
    "lat": 47.2253461,
    "lon": 16.6287418,
    "population": 109518
  },
  {
    "name": "Kecskem\u00e9t",
    "lat": 46.9000429,
    "lon": 19.7000272,
    "population": 113895
  },
  {
    "name": "Sz\u00e9kesfeh\u00e9rv\u00e1r",
    "lat": 47.1946761,
    "lon": 18.4080647,
    "population": 144319
  },
  {
    "name": "Ny\u00edregyh\u00e1za",
    "lat": 47.9653268,
    "lon": 21.7187154,
    "population": 176880
  },
  {
    "name": "Biel",
    "lat": 47.16659,
    "lon": 7.2500378,
    "population": 78708
  },
  {
    "name": "San Juan del Sur",
    "lat": 11.2499968,
    "lon": -85.8600411,
    "population": 7790
  },
  {
    "name": "Drobeta-Turnu Severin",
    "lat": 44.6458911,
    "lon": 22.6658927,
    "population": 106578
  },
  {
    "name": "Tulcea",
    "lat": 45.1993457,
    "lon": 28.7966813,
    "population": 92475
  },
  {
    "name": "Arad",
    "lat": 46.17001,
    "lon": 21.31998,
    "population": 169065
  },
  {
    "name": "Oradea",
    "lat": 47.0499821,
    "lon": 21.9199951,
    "population": 213830
  },
  {
    "name": "Sibiu",
    "lat": 45.7971129,
    "lon": 24.1371207,
    "population": 155565
  },
  {
    "name": "Suceava",
    "lat": 47.6376982,
    "lon": 26.2593168,
    "population": 105796
  },
  {
    "name": "Buz\u0103u",
    "lat": 45.156506,
    "lon": 26.8065185,
    "population": 130954
  },
  {
    "name": "Gala\u021bi",
    "lat": 45.4558934,
    "lon": 28.0458744,
    "population": 311156
  },
  {
    "name": "Foc\u0219ani",
    "lat": 45.6965505,
    "lon": 27.186547,
    "population": 105112
  },
  {
    "name": "Ferre\u00f1afe",
    "lat": -6.6299971,
    "lon": -79.8000234,
    "population": 50184
  },
  {
    "name": "Motupe",
    "lat": -6.1500264,
    "lon": -79.7100031,
    "population": 13681
  },
  {
    "name": "Mollendo",
    "lat": -17.0200089,
    "lon": -72.0199815,
    "population": 49033
  },
  {
    "name": "Urubamba",
    "lat": -13.3042151,
    "lon": -72.1166165,
    "population": 7540
  },
  {
    "name": "Santo Tomas",
    "lat": -14.4600102,
    "lon": -72.0800037,
    "population": 4134
  },
  {
    "name": "Putina",
    "lat": -15.470026,
    "lon": -69.4299846,
    "population": 8118
  },
  {
    "name": "Casma",
    "lat": -9.4400065,
    "lon": -78.2099913,
    "population": 30000
  },
  {
    "name": "Tournavista",
    "lat": -8.9321822,
    "lon": -74.7052181,
    "population": 511
  },
  {
    "name": "Huamachuco",
    "lat": -7.8100285,
    "lon": -78.0499494,
    "population": 30835
  },
  {
    "name": "Otuzco",
    "lat": -7.8999971,
    "lon": -78.5699952,
    "population": 10134
  },
  {
    "name": "Lamas",
    "lat": -6.4300093,
    "lon": -76.5200169,
    "population": 13693
  },
  {
    "name": "Nauta",
    "lat": -4.5700195,
    "lon": -73.7800291,
    "population": 2500
  },
  {
    "name": "Puquio",
    "lat": -14.6999955,
    "lon": -74.1299819,
    "population": 10491
  },
  {
    "name": "Chosica",
    "lat": -11.9300354,
    "lon": -76.7100053,
    "population": 88606
  },
  {
    "name": "Satipo",
    "lat": -11.2599988,
    "lon": -74.6900253,
    "population": 15532
  },
  {
    "name": "Tarma",
    "lat": -11.4100154,
    "lon": -75.7299876,
    "population": 51350
  },
  {
    "name": "La Oroya",
    "lat": -11.5200346,
    "lon": -75.9400007,
    "population": 33345
  },
  {
    "name": "Huaura",
    "lat": -11.060011,
    "lon": -77.5999768,
    "population": 40400
  },
  {
    "name": "Huacho",
    "lat": -11.1100338,
    "lon": -77.6199498,
    "population": 80474
  },
  {
    "name": "General Eugenio Alejandrino Garay",
    "lat": -20.5199503,
    "lon": -62.209986,
    "population": 972
  },
  {
    "name": "Arroyos y Esteros",
    "lat": -25.0499581,
    "lon": -57.0899884,
    "population": 3055
  },
  {
    "name": "Villa Hayes",
    "lat": -25.0900073,
    "lon": -57.5299874,
    "population": 15643
  },
  {
    "name": "Fortin Falcon",
    "lat": -23.0502868,
    "lon": -59.8499492,
    "population": -99
  },
  {
    "name": "Puerto Pinasco",
    "lat": -22.6400277,
    "lon": -57.7899974,
    "population": 500
  },
  {
    "name": "Pozo Colorado",
    "lat": -23.4300053,
    "lon": -58.8599838,
    "population": 2135
  },
  {
    "name": "San Pedro",
    "lat": -24.089965,
    "lon": -57.0799891,
    "population": 9360
  },
  {
    "name": "San Lorenzo",
    "lat": -25.3400179,
    "lon": -57.5200397,
    "population": 500000
  },